ShopID,ShopName,Address,Landmark,Area,City,Pincode,Latitude,Longitude,State,StartTime,EndTime,OpenMonday,OpenTuesday,OpenWednesday,OpenThursday,OpenFriday,OpenSaturday,OpenSunday,MerchantID,ShopAddDate
11,Everygreen Eye Vision,"Shop No 13, Nagardas Park",Near Old Nagardas Road Post Office,Andheri East,Mumbai,400069,19.1218,72.8505,Maharashtra,00:00:00,00:00:12,0,1,1,1,1,1,1,971,07-10-2015
12,The Time Store,"A-1, Ashish Bldg, Sahar Road, Opp. Agarkar Chowk",Near Railway Station,Andheri East,Mumbai,400069,19.1179,72.8482,Maharashtra,00:00:00,00:00:10,1,1,1,1,1,1,1,972,07-10-2015
13,Global Fusion,"Shop No 3, Ram Niketan building, Koldongri",Sahar Road,Andheri East,Mumbai,400069,19.111278,72.849886,Maharashtra,09:00:00,22:00:00,1,0,1,1,1,1,1,973,07-10-2015
14,Naman Collection,"Shop - 4, ram Niketan Building, Koldongri",Sahar Road,Andheri east,Mumbai,400069,19.111381,72.849875,Maharashtra,10:00:00,21:00:00,1,0,1,1,1,1,1,976,07-10-2015
15,Wonder Living Furniture,"Shop No 4 & 5, Gokul Arcade, A wing, Sahar Road",Near Garware Ployster,Vile Parle,Mumbai,400057,19.109963,72.851922,Maharashtra,11:30:00,21:00:00,1,0,1,1,1,1,1,977,07-10-2015
27,Divyam,Andheri Kurla Road,Andheri Kurla Road,J. B. Nagar,Mumbai,400059,19.1122169,72.8667273,Maharashtra,10:30:00,21:30:00,1,1,1,1,1,1,1,978,08-10-2015
28,Divyam ,"Shop No 4 Adarsh Society, Nehru Road",opp. Sabari Hotel,Vile Parle East,Mumbai,400057,19.097731,72.848713,Maharashtra,10:30:00,21:30:00,1,1,1,1,1,1,1,978,08-10-2015
29,Divyam,"Shop No 22, Ganga Niwas, , Link Road",Opp Ichapurti Hanuman Temple,Malad West ,Mumbai,400064,19.185046,72.83521,Maharashtra,10:30:00,21:30:00,1,1,1,1,1,1,1,978,08-10-2015
30,Sambhav Electronics,"Naseeb Manzil, Sahar Road, Koldongri",Sahar Road,Andheri East,Mumbai,400069,19.112905,72.848276,Maharashtra,11:00:00,21:30:00,1,0,1,1,1,1,1,979,09-10-2015
31,Maharashtra,"6, Halwai Nagar, Koldongri",Sahar Road,Andheri East,Mumbai,400069,19.11081,72.850765,Maharashtra,09:00:00,21:30:00,1,1,1,1,1,1,1,980,09-10-2015
32,Excellence,"Sajid Tower, S. V. Road",opp. Amboli Railway Crossing,Andheri West,Mumbai,400058,19.129407,72.847188,Maharashtra,10:00:00,22:00:00,1,1,1,1,1,1,1,981,09-10-2015
33,Better Home,"Shop No. 2, Blesan Apartment, S. V. Road, Amboli Naka",Opp. Amboli Church,Andheri West,Mumbai,400058,19.127541,72.846785,Maharashtra,10:00:00,22:00:00,1,1,1,1,1,1,1,982,09-10-2015
34,Reshma Furnishing & Mattresses,"Shop No 5, S. V. Road",Nr. Amboli Naka Signal,Andheri West,Mumbai,400058,19.127724,72.846893,Maharashtra,10:00:00,21:00:00,1,1,1,1,1,1,1,983,09-10-2015
35,Sidrah Sales,"All types of Bags, Hand Luggage, Soft Bag Packs, Haver Sack Bags, Travel Bags, Laptop Bags, Gym Bags, Office Bag, Leather Office Bags, Leather Laptop Bag and Ladies Purse",Opp.  Bhatia Classes,Andheri West,Mumbai,400058,19.122911,72.846349,Maharashtra,10:00:00,21:30:00,1,1,1,1,1,1,1,984,09-10-2015
36,Kanco,S. V. road,Near Post Office,Andheri West,Mumbai,400058,19.121466,72.84601,Maharashtra,10:30:00,21:30:00,1,1,1,1,1,1,1,985,09-10-2015
37,Mahalaxmi Collection,"Shop No. 4 Thankar Building, S. V. Road, Andheri Naka",Under Metro Bridge,Andheri West,Mumbai,400058,19.121814,72.846073,Maharashtra,10:00:00,21:30:00,1,1,1,1,1,1,1,986,09-10-2015
38,Bavlee,Old Nagardas Road,Old Nagardas Road,Andheri East,Mumbai,400069,19.120552,72.849435,Maharashtra,10:00:00,21:00:00,1,1,1,1,1,1,1,987,10-10-2015
39,Tribal Zone,"3, Riyaz House, Irla Road",Irla Road,Vile Parle West,Mumbai,400056,19.108355,72.838588,Maharashtra,10:00:00,22:00:00,1,1,1,1,1,1,1,988,10-10-2015
40,Prince,"6, Arif Mansion",Irla Society Road,Vile Parle West,Mumbai,400056,19.108125,72.839718,Maharashtra,10:30:00,22:00:00,1,1,1,1,1,1,1,989,10-10-2015
41,Apsara - The Mobile Shop,"2/59, Alankar Bldg, Sagar Road, Nr. Railway Station",Opp. Better Home,Andheri East,Mumbai,400069,19.117483,72.84823,Maharashtra,10:00:00,22:00:00,1,1,1,1,1,1,1,990,10-10-2015
42,Momento,"16-A, Kalpita Enclave, Sahar Road",Sahar Road,Andheri East,Mumbai,400069,19.112905,72.848276,Maharashtra,10:00:00,22:30:00,1,1,1,1,1,1,1,991,10-10-2015
43,Blush Salon,"Shop No 2, Bhatt Building",Old Nagardas Road,Andheri East,Mumbai,400069,19.123874,72.85109,Maharashtra,10:30:00,21:00:00,1,1,1,1,1,1,1,992,12-10-2015
44,Blush Salon,"Shop No 19, Satellite Garden Phase 2,",Film City Road,Goregaon East,Mumbai,400063,19.173426,72.874134,Maharashtra,10:30:00,21:00:00,1,1,1,1,1,1,1,992,12-10-2015
45,Awesome - unisex Salon,"Shiv Ashish, S.V. Road","Near vijay Sales, Opp. Bank of Maharashtra",Andheri West,Mumbai,400058,19.11333,72.841947,Maharashtra,08:00:00,21:00:00,1,1,1,1,1,1,1,994,12-10-2015
46,Ujala Furnishing Center,"E-11, Deepawali Building, Shop No. 3, S.V. Road",Near M.A. High School,Andheri West,Mumbai,400058,19.118034,72.844858,Maharashtra,11:00:00,21:00:00,1,1,1,1,1,1,1,995,12-10-2015
47,Jinal Designer Studio,"Shop No 10/11, Madhav Nagar, S. V. Road",Next to BSES Sub. Stn,Andheri West,Mumbai,400058,19.1191,72.845248,Maharashtra,10:30:00,21:30:00,1,1,1,1,0,1,1,996,12-10-2015
48,Azka Collection,"Shop No B/4, Super Market, Sakinaka","Opp. Maharashtra Weigh, below metro station",Andheri East,Mumbai,400072,19.10315,72.888228,Maharashtra,10:30:00,23:00:00,1,1,1,1,1,1,1,997,12-10-2015
49,Concept - Fancy Hardware,"Shop No. 7/8, Shah Apartment, Marol Maroshi Road, Near Temptation Hote",Behind SBI Bus Stop,Andheri East,Mumbai,400059,19.115459,72.879811,Maharashtra,10:00:00,20:00:00,0,1,1,1,1,1,1,998,13-10-2015
50,Jai Bhawani Jewelers,"Plot No. 18-A, 14/15, Bhavni Nagar", M. M. Road,Andheri East,Mumbai,400059,19.119916,72.88002,Maharashtra,09:30:00,21:30:00,1,0,1,1,1,1,1,999,13-10-2015
51,Morange Professional Salon,"Shop No 2, Bamanpuri CHS, Kanti Nagar, J. B. Nagar",Opp. Gnaesh Mandir,Andheri East,Mumbai,400059,19.109026,72.86555,Maharashtra,10:00:00,22:00:00,1,1,1,1,1,1,1,1000,13-10-2015
52,Prem & Sons,"Shop . No. 5, Gulmohar Apts, Vjay Nagar, M.M. Road, Marol",Opp. St. Vincent Palloti Church,Andheri East,Mumbai,400059,19.12078,72.880012,Maharashtra,10:00:00,22:00:00,1,1,1,1,1,1,1,1001,13-10-2015
53,Choice Bakers & Fast Food,"Asad Compound, Marol Pipe Line Bus stop",Opp. Mukund Hospital,Andheri East,Mumbai,400059,19.110792,72.872093,Maharashtra,10:00:00,22:00:00,1,1,1,1,1,1,1,1002,13-10-2015
54,Choice Center,"5/5 Greenland Apartments, J. B. Nagar",Greenland Apartments,Andheri East,Mumbai,400059,19.110758,72.866676,Maharashtra,09:00:00,22:00:00,1,1,1,1,1,1,1,1003,13-10-2015
55,Sweetlime,"Shop. No. 1, Jay Ganesh Society, J. B. Nagar",Opp. Monarch park,Andheri East,Mumbai,400059,19.1086,72.864762,Maharashtra,10:00:00,22:00:00,1,1,1,1,1,1,1,1004,13-10-2015
56,Chouhan Furnishing,"Mastan Estate, Marol Maroshi Road, ",M.M. Road,Andheri East,Mumbai,400059,19.112482,72.879252,Maharashtra,09:00:00,21:00:00,1,0,1,1,1,1,1,1005,16-10-2015
57,Cantabil Retail India ,"Shop No D-7, Mukund Nagar, C.H.S.L, Andheri Kurla Road, Marol Pipe Line",Near Mukund Hospital,Andheri East,Mumbai,400059,19.077389,72.917641,Maharashtra,11:00:00,21:30:00,1,1,1,1,1,1,1,1006,16-10-2015
58,Ruchira Jewelers,"18/C/31, Bhavani Nagar Shopping Center, M.M. Road",Opp. Seven Hills Hospital,Andheri East,Mumbai,400059,19.111864,72.879028,Maharashtra,09:30:00,21:30:00,1,0,1,1,1,1,1,1007,20-10-2015
59,Neptune - Family Dining,"Andheri Kurla Road, Marol",Below Marol Naka Metro Station,Andheri East,Mumbai,400059,19.117301,72.884039,Maharashtra,11:00:00,23:00:00,1,1,1,1,1,1,1,1008,20-10-2015
60,Classic Luggage,"Shop No. 14, Pranik Chambers, Saki Vihar Road",Sakinanaka Junction,Andheri East,Mumbai,400072,19.114684,72.888993,Maharashtra,10:00:00,22:00:00,1,1,1,1,1,1,1,1009,20-10-2015
61,Gini & Jony,Saki Vikar Road,Saki Naka junction,Andheri East,Mumbai,400072,19.114684,72.888993,Maharashtra,10:30:00,21:30:00,1,1,1,1,1,1,1,1010,20-10-2015
62,Shubham Jewelers,"72, 99, Galleria, Hiranandani gardens",Opp. ICICI ATM,Powai,Mumbai,400076,19.1193858,72.9116404,Maharashtra,09:30:00,20:30:00,1,1,1,1,1,1,1,1012,20-10-2015
63,Shubham Jewelers,"Shop no 2, Nahar Business Center, Chandivali Farm Road, Chandivali",Nahar,Andheri East,Mumbai,400072,19.114667,72.895123,Maharashtra,09:30:00,20:30:00,1,1,1,1,1,1,1,1012,20-10-2015
64,Ashraf Salon,"Shop No A-8, Nahar Amrit Shakti Road,  Opp Lokmilan building, Chandivali",Nahar Shopping Complex,Andheri East,Mumbai,400072,19.118171,72.890492,Maharashtra,09:00:00,22:00:00,1,1,1,1,1,1,1,1013,20-10-2015
65,Mumbai Masala,"Shop No 9, Shiv Om Complex, Chandivali",Near ICICI Bank,Andheri East,Mumbai,400072,19.118171,72.890492,Maharashtra,11:00:00,00:00:00,1,1,1,1,1,1,1,1014,20-10-2015
66,Red & Blue ,"Shop No 8, Marol Maroshi Road",Opp. Seven Hills Hospital,Andheri East,Mumbai,400059,19.117093,72.88018,Maharashtra,09:30:00,22:30:00,1,1,1,1,1,1,1,1015,20-10-2015
67,Blush Salon & Spa,"Shop No. 7/8, Abbas Manzil, CTS 605, Chakala Road",Chakala Road,Andheri East,Mumbai,400099,19.107906,72.858783,Maharashtra,10:00:00,22:00:00,1,1,1,1,1,1,1,1017,20-10-2015
68,Classic Furnishing & Mattreses,"Plot No. 44, Shop No. 2, Tarun Bharat Society, Chakala",Tarun Bharat Society,Andheri East,Mumbai,400099,19.108089,72.861841,Maharashtra,10:00:00,22:00:00,1,0,1,1,1,1,1,1018,20-10-2015
70,Beauty Furnishing Foam Center,"Gurushri Building, Plot No. 11, Shop No 3, Tarun Bharat Society, Chakala",Tarun Bharat Society,Andheri East,Mumbai,400099,19.107862,72.860449,Maharashtra,09:30:00,21:30:00,1,0,1,1,1,1,1,1019,20-10-2015
71,Paradise Furnishing,"Darshan Classic Building, Shop No. 4, J.B. Nagar",Near Darshan Classic Buidling,Andheri East,Mumbai,400099,19.108089,72.861841,Maharashtra,09:00:00,21:00:00,1,0,1,1,1,1,1,1020,20-10-2015
72,Kala Mandir NX,"Shop No. 8/9, Swami vivekanand Society, Chakala",,Andheri East,Mumbai,400099,19.1154401,72.8316142,Maharashtra,10:00:00,21:00:00,1,0,1,1,1,1,1,1021,20-10-2015
73,Lucky Hardware Stores,"1&2, Krishna Bhuvan, P.P> Road",Opp. Sona Udyog,Andheri East,Mumbai,400069,19.12557,72.853145,Maharashtra,09:00:00,21:00:00,0,1,1,1,1,1,1,1022,21-10-2015
75,Classic Furnishing,"Shreyas 113, J.P. Road",Opp. Navrang Talkies,Andheri West,Mumbai,400058,19.123676,72.843061,Maharashtra,10:00:00,21:00:00,1,1,1,1,1,1,1,1023,21-10-2015
76,Fashion House NX - Family Shop,Shop No 2 Kapoor Buildind J.P.Road,Near Navrang Cinema,Andheri West,Mumbai,400058,19.123352,72.84369,Maharashtra,10:30:00,21:30:00,1,1,1,1,0,1,1,1024,21-10-2015
77,Vision Tech optics & Contact Lens Clinic,"2,Devi Ekveera Apartment",Old Nagardas Road,Andheri East,Mumbai,400069,19.120958,72.849968,Maharashtra,10:00:00,21:00:00,1,1,1,1,1,1,1,1025,21-10-2015
78,All Right Shoes,"Shop No 40-A/1,Sunderji Bhagwanji Bhatt Building",Old Nagardas Road,Andheri East,Mumbai,400069,19.124801,72.851697,Maharashtra,10:00:00,22:00:00,1,0,1,1,1,1,1,1026,21-10-2015
80,Decent Womens Wear,"Shop No 3-B, Building No 22, Amarjyoti ",Four Bunglows,Andheri West,Mumbai,400053,19.128203,72.825477,Maharashtra,10:00:00,22:00:00,1,1,1,1,1,1,1,1027,21-10-2015
81,Dhanraj boutiquee,"4, Shanti Bhavan J.P.Road",Opp Ram Mandir,Andheri West,Mumbai,400058,19.122488,72.84526,Maharashtra,10:00:00,22:00:00,1,1,1,1,1,1,1,1028,21-10-2015
82,Famous Optic,"Shop No 09, Zehra apartment,",Behram Baug,Jogeshwari West,Mumbai,400102,19.144129,72.841247,Maharashtra,09:30:00,21:30:00,0,1,1,1,1,1,1,1030,21-10-2015
84,Nuzhat Footwear,"Shop No !-A, Hansanabad Building",Behram Baug,Jogeshwari West,Mumbai,400102,19.143633,72.839196,Maharashtra,10:00:00,22:00:00,1,1,1,1,1,1,1,1031,21-10-2015
85,Shamshad Gadi Bhandar,"Shop No 2, Near Metro Palace Hotel Behram Baug",Opp Farid Seekh Kabab,Jogeshwari West,Mumbai,400102,19.143298,72.837996,Maharashtra,10:00:00,22:30:00,1,1,1,1,1,1,1,1032,21-10-2015
86,S-3 Collection,"1, Jiwa Hirji Patel Compound",Behram Baug,Jogeshwari West,Mumbai,400102,19.143329,72.837112,Maharashtra,10:00:00,22:30:00,1,1,1,1,1,1,1,1033,21-10-2015
87,Hilco optics,"113, J.P.Road (Versova Road)",Near Santoshi Maa Temple,Andheri West,Mumbai,400058,19.123541,72.843197,Maharashtra,09:30:00,21:30:00,1,1,1,1,1,1,1,1034,21-10-2015
88,Maitri Material,"Shop No 3,110  Narayan Bhuvan",J.P.Road,Andheri west,Mumbai,400058,19.123929,72.842979,Maharashtra,10:00:00,22:00:00,1,1,1,1,1,1,1,1035,21-10-2015
89,Kapil Enterprises,"Shop No 46, Ground Floor Sunil Shopping Centre J.P.Road",Opp Navrang Theatre,Andheri West,Mumbai,400058,19.123991,72.842488,Maharashtra,10:30:00,20:30:00,1,1,1,1,0,1,1,1036,21-10-2015
90,Fashion House,"Shop No 9, J.P.Road",Opp Ram Mandir,Andheri West,Mumbai,400058,19.122543,72.845158,Maharashtra,10:00:00,21:00:00,1,1,1,1,1,1,1,1037,21-10-2015
91,Chashma Ghar,"A/03, Sakinaka Industrial Market, A. G. Link Road, Sakinaka Junction",Opp. Maharashtra Vajan Kata,Sakinaka,Mumbai,400072,19.103156,72.887531,Maharashtra,10:30:00,22:00:00,1,1,1,1,1,1,1,1038,22-10-2015
92,Solanki Furnishing & Mattresses,"Shop No 2, Lalit kunj, Koldongri, Sahar Road",,Andheri East,Mumbai,400069,19.116232,72.844421,Maharashtra,09:00:00,21:00:00,1,0,1,1,1,1,1,1039,22-10-2015
93,Bellariz Fashion,"Shop No. 5, Harchusind, Bahar C.H.S, Behram Baug Rd, ",,Jogeshwari West,Mumbai,400102,19.143937,72.841481,Maharashtra,10:00:00,21:30:00,1,1,1,1,1,1,1,1040,22-10-2015
94,Aaraish - Islamic Dresses,"Shop No 4, Dream Land Apartment, Near Ruby Hospital, Vaishali Nagar",,Jogeshwari West,Mumbai,400102,19.1439878,72.8419898,Maharashtra,11:00:00,22:00:00,1,1,1,1,0,1,1,1041,22-10-2015
95,Falak Boutique,"Shop No. 7 Dreamland building, Vaishali Nagar",,Jogeshwari West,Mumbai,400102,19.145075,72.843192,Maharashtra,11:00:00,22:00:00,1,1,1,1,0,1,1,1042,22-10-2015
96,Zaiba optics,"Behram Baug to Veera Desai Road,  Behram Baug",Near Behram Baug Police chowky,Jogeshwari West,Mumbai,400102,19.143008,72.842927,Maharashtra,10:00:00,22:00:00,1,1,1,1,1,1,1,1043,22-10-2015
97,Zaiba Optics,"Shop No 2, Nrendra CHS, S.V. Road, ",Below Orbit Eye Hospital,Jogeshwari West,Mumbai,400102,19.1436495,72.8403608,Maharashtra,00:00:00,22:00:00,1,1,1,1,1,1,1,1043,22-10-2015
98,Zaiba Optics,"Shop No. 13, Belwalkar Wadi, M. G. Road",,Goregaon West,Mumbai,400104,19.1630501,72.8371113,Maharashtra,10:00:00,22:00:00,1,1,1,1,1,1,1,1043,22-10-2015
99,Magson Mens Wear,"Gokul Arcade, Shop no. A/9, S.N. Marg",Next to Garware,Vile Parle East,Mumbai,400057,19.109852,72.852013,Maharashtra,11:00:00,21:00:00,1,0,1,1,1,1,1,1044,22-10-2015
100,ALFIZA,"Shop No. 1, 2, 3 Ganesh Nagar, New Link Road, Near Tandon garage",Opp. Evershine Gree tower,Jogeshwari West,Mumbai,400102,19.146388,72.833444,Maharashtra,10:30:00,22:00:00,1,1,1,1,1,0,1,1045,22-10-2015
101,Sunrise Furniture,"Shop No. 4, New Link Road",Opp. Evershine Building,Jogeshwari West,Mumbai,400102,19.146319,72.833646,Maharashtra,10:00:00,22:00:00,1,1,1,1,1,0,1,1046,22-10-2015
102,Indian Art,"Shop No 5, New Link Road, Behram baug",Opp. Evershine Green,Jogeshwari West,Mumbai,400102,19.145958,72.834059,Maharashtra,10:00:00,22:00:00,1,1,1,1,1,0,1,1047,22-10-2015
103,Natural Living Furniture,"Shop No 2 , New Link Road, Adarsh Nagar",opp. Raigad Military School,Jogeshwari West,Mumbai,400102,19.145918,72.83452,Maharashtra,10:00:00,22:00:00,1,1,1,1,1,0,1,1048,22-10-2015
104,Style Furniture,"Shop No 7, New Link Road, ",Opp. Raigad military school,Jogeshwari West,Mumbai,400102,19.146031,72.834409,Maharashtra,10:00:00,22:00:00,1,1,1,1,1,0,1,1049,22-10-2015
105,Shivam Chairs,"New Link Road, Behram baug",opp. Shiv Sai Mandir,Jogeshwari West,Mumbai,400102,19.145754,72.836469,Maharashtra,09:00:00,18:00:00,1,1,1,1,1,1,1,1050,22-10-2015
106,Tirupati Gents & Boys Wear,"Station Road, Near Hanuman Temple",opp. satelite shopping center,Jogeshwari East,Mumbai,400102,19.135489,72.850759,Maharashtra,09:00:00,22:30:00,1,0,1,1,1,1,1,1051,22-10-2015
107,Siddhi Collection,"Shop No 7, Satellite Shopping Center, Station Road",,Jogeshwari East,Mumbai,400060,19.135481,72.850766,Maharashtra,09:30:00,22:00:00,1,0,1,1,1,1,1,1052,22-10-2015
108,Satyam Appliances,"Shop no 14, Satellite Classic Shopping Center",Opp. Hanuman Mandir,Jogeshwari East,Mumbai,400060,19.135501,72.850822,Maharashtra,09:30:00,22:00:00,1,1,1,1,1,1,1,1053,22-10-2015
109,Anmol,"Shop No 3, Dinbai Building, Station Road",,Jogeshwari East,Mumbai,400060,19.135973,72.851537,Maharashtra,10:30:00,21:30:00,1,0,1,1,1,1,1,1054,22-10-2015
110,Textile Emporium,"146, J.P. Road",Near Andheri Station,Andheri West,Mumbai,400058,19.122385,72.845445,Maharashtra,09:30:00,21:30:00,1,1,1,1,0,1,1,1055,23-10-2015
111,Allwyn Ready Made Garments,"Shpo No 7, Neelkanth Chawl J.P.Road",Opp Ram Mandir,Andheri West,Mumbai,400058,19.122398,72.845415,Maharashtra,09:00:00,22:00:00,1,1,1,1,0,1,1,1056,23-10-2015
112,Fitness Hub,"Dubey Building Compound, Old Nagardas Road",Opp Allahabad bank,Andheri East,Mumbai,400069,19.123361,72.850903,Maharashtra,06:00:00,23:00:00,0,1,1,1,1,1,1,1057,23-10-2015
113,Reshma Furnishing & Mattresses,"Shop No 1, Blossom Park, S.V.Road",Opp Farooqh High School,Jogeshwari West,Mumbai,400102,19.132477,72.847823,Maharashtra,10:00:00,21:30:00,1,1,1,1,1,1,1,1058,23-10-2015
114,A-One Collection,"Shop No 3, Setelite Classic Shopping Centre",Station Road,Jogeshwari East,Mumbai,400060,19.135485,72.850743,Maharashtra,09:00:00,22:00:00,1,0,1,1,1,1,1,1059,23-10-2015
115,Rang Jyot Matching Centre,Jogeshwari Station Road,Near Munciple Market,Jogeshwari East,Mumbai,400060,19.135484,72.850753,Maharashtra,11:00:00,21:00:00,1,1,1,1,1,1,1,1060,23-10-2015
116,Sajani Sarees NX,"Shop No 4, Dastur Building Station Road",Near Bharat Bank,Jogeshwari East,Mumbai,400060,19.135922,72.851381,Maharashtra,09:00:00,22:00:00,1,0,1,1,1,1,1,1061,23-10-2015
117,Sajani Sarees,"Shop No 4, Dastur Building Station Road",Near Bharat Bank,Jogeshwari East,Mumbai,400060,19.135922,72.851381,Maharashtra,09:00:00,22:00:00,1,0,1,1,1,1,1,1061,23-10-2015
118,Lucky Fashion,"A-1, Swami Chawl, Station Road",Opp Kulkarni Hospital,Jogeshwari East,Mumbai,400060,19.136016,72.851864,Maharashtra,10:30:00,21:00:00,1,0,1,1,1,1,1,1062,23-10-2015
119,Deepak Steel Centre,Caves Road,Opp Interlink Compound,Jogeshwari East,Mumbai,400060,19.136407,72.852781,Maharashtra,09:00:00,22:00:00,1,1,1,1,1,1,1,1063,23-10-2015
120,Kurti Point,"Shop No. A-9, Gayatri Dham Shopping Center, M. G. Road ",Junction of Derasar Lane & M.G. Road,Ghatkopar East,Mumbai,400077,19.082735,72.905049,Maharashtra,11:00:00,21:00:00,1,0,1,1,1,1,1,1064,23-10-2015
121,Little Baby,"Hardevi Co-Op Society, Station Road",Opp Interlink Compound,Jogeshwari East,Mumbai,400060,19.13646,72.852878,Maharashtra,10:00:00,22:00:00,1,0,1,1,1,1,1,1065,23-10-2015
122,Eye Care,"8. Paras Darshan, M.G. Road",,Ghatkopar East,Mumbai,400077,19.082283,72.904737,Maharashtra,10:00:00,21:00:00,1,0,1,1,1,1,1,1066,23-10-2015
123,Akshay Uniform,"Shop No 1, Caves Road",Opp Bank of Baroda,Jogeshwari East,Mumbai,400060,19.136778,72.853639,Maharashtra,09:30:00,21:30:00,1,0,1,1,1,1,1,1067,23-10-2015
124,VIP Park,"5, Marvadi Building, M.G. Road",Opp. Deraser Lane,Ghatkopar East,Mumbai,400077,19.082688,72.904894,Maharashtra,10:00:00,21:00:00,1,1,1,1,1,1,1,1068,23-10-2015
125,Cherish - Complete Mobile Shop,"Shop. No. 10, Shree Krupa Building, Navroji Lane",Near Muni Suvrat Deraser,Ghatkopar West,Mumbai,400086,19.084535,72.904883,Maharashtra,10:00:00,21:00:00,1,1,1,1,1,1,1,1069,23-10-2015
126,Satyam Collection,Dastur Building Station Road,Near SBI Bank,Jogeshwari East,Mumbai,400060,19.135939,72.851392,Maharashtra,09:00:00,22:00:00,1,0,1,1,1,1,1,1070,23-10-2015
127,One Look - Teens & Ladies Western Wear,"Shop no. 4 Ratan Mahal, ",Near Ghatkopar Railway Station,Ghatkopar West,Mumbai,400086,19.0853576,72.9031073,Maharashtra,11:00:00,22:00:00,1,1,1,1,1,1,1,1071,23-10-2015
128,Satyam Collection,Dastur Building Station road,Opp SBI Bank,Jogeshwari East,Mumbai,400060,19.135939,72.851392,Maharashtra,09:00:00,22:00:00,1,0,1,1,1,1,1,1070,23-10-2015
129,Tip Top Shoe Co,"Shop No. 6-7, Rajkamal, Shradhanand Road",Near Railway Station,Ghatkopar West,Mumbai,400086,19.084897,72.905406,Maharashtra,10:00:00,21:00:00,1,1,1,1,1,1,1,1072,23-10-2015
130,Paduka family Footwear,"Sadanand Rd, Near Hindu Maha Sabha Hospital",Opp. Milan Shopping center,Ghatkopar West,Mumbai,400086,19.0849,72.905839,Maharashtra,10:00:00,22:00:00,1,1,1,1,0,1,1,1074,23-10-2015
131,Paduka Family Footwear,"Sadanand Road, Opp. Milan shopping center",Near Hindu Mahasabha Hospital,Ghatkopar West,Mumbai,400086,19.0849,72.905839,Maharashtra,10:00:00,22:00:00,1,1,1,1,0,1,1,1074,23-10-2015
132,Tipsy Collection,"Shardanand Road, Near railway station",Opp. Hindu Mahasabha Hospital,Ghatkopar West,Mumbai,400086,19.0852863,72.9040984,Maharashtra,10:30:00,22:30:00,1,1,1,1,1,1,1,1076,23-10-2015
133,Wadala Grih Vastu Bhandar,"Shop No 4, Disendow Building Gufa Road",,Jogeshwari East,Mumbai,400060,19.13661,72.853283,Maharashtra,09:00:00,21:00:00,1,0,1,1,1,1,0,1075,23-10-2015
134,Mastikhor Collection,"4, Arvind Villa",Opp. Railway station,Ghatkopar West,Mumbai,400086,19.08539,72.907226,Maharashtra,10:00:00,21:30:00,1,1,1,1,0,1,1,1077,23-10-2015
135,Shree Sateri Optics,Dalwai Compound Station Road,Near Western Exp Highway,Jogeshwari East,Mumbai,400060,19.13686,72.854394,Maharashtra,09:00:00,21:00:00,1,0,1,1,1,1,1,1078,23-10-2015
136,KORRI ,"Jai Moti Building, Hirachand Desai Road",Opp. New Post office,Ghatkopar West,Mumbai,400086,19.086649,72.907956,Maharashtra,10:10:00,22:00:00,1,1,1,1,1,1,1,1079,23-10-2015
137,KORRI,"Shop No 3/4 Star Mall, Opp Plaza Cinema, N.C. Kelkar Road",Near Shivaji Mandir,Dadar West,Mumbai,400028,19.0256358,72.8401306,Maharashtra,10:00:00,22:00:00,1,1,1,1,1,1,1,1079,23-10-2015
138,KORRI,"Guru Prerna Building, Naik wadi, Shivaji Path",,Thane West,Mumbai,400602,19.1886152,72.9746271,Maharashtra,10:00:00,22:00:00,1,1,1,1,1,1,1,1079,23-10-2015
139,KORRI,"Shop No 1 Prabhat Plaza, behind kalyan Jewelers, Station Road",,Thane West,Thane,400601,19.190532,72.9744074,Maharashtra,10:00:00,22:00:00,1,1,1,1,1,1,1,1079,23-10-2015
140,Mehul Opticians,"Shop No 3, Dalwai Compound Gumpha Road",Near western Exp Highway,Jogeshwari East,Mumbai,400060,19.136392,72.854856,Maharashtra,10:30:00,09:00:00,0,1,1,1,1,1,1,1080,23-10-2015
141,Fashion Palace,9 Laxmi Shopping Center,Near railway station,Ghatkopar West,Mumbai,400086,19.086669,72.907943,Maharashtra,10:00:00,22:00:00,1,1,1,1,0,1,1,1081,23-10-2015
142,World Fashion,"Shop No. 24, J. B. Road, Gopalji Devi Chowk",Opp. Bata Showroom,Ghatkopar West,Mumbai,400086,19.087653,72.907983,Maharashtra,10:00:00,22:00:00,1,1,1,1,1,1,1,1082,23-10-2015
143,Roop Sangam Family Shop,Caves Road,Near Bank of Barod,Jogeshwari East,Mumbai,400060,19.136609,72.853181,Maharashtra,09:30:00,21:30:00,1,0,1,1,1,1,1,1083,23-10-2015
144,Clothes Corner,"Shop No 2, Ground Floor Manek Niwas, Caves Road",Near jain Temple,Jogeshwari East,Mumbai,400060,19.136307,72.852498,Maharashtra,11:00:00,10:00:00,1,0,1,1,1,1,1,1084,23-10-2015
145,Le Brog Shoes Centre,"Shop No 3, Ayub Manzil Caves Road",Near Highway Bridge,Jogeshwari East,Mumbai,400060,19.136253,72.855012,Maharashtra,10:00:00,22:00:00,1,0,1,1,1,1,1,1085,23-10-2015
146,Comfort Foot Wear,"Shop No 1, Dalwai Compound Caves Road",Near Jogeshwari Subway,Jogeshwari East,Mumbai,400060,19.136432,72.854912,Maharashtra,10:00:00,22:00:00,1,0,1,1,1,1,1,1086,23-10-2015
147,Lucky Steel Furnicture,"Dalwai Compound, Sanjay Nagar",Near Jogeshwari  Highway Bridge,Jogeshwari East,Mumbai,400060,19.137438,72.855431,Maharashtra,10:00:00,22:00:00,1,1,1,1,1,1,1,1087,23-10-2015
148,Metro Teilors & Clothiers,"Sanjay Gandhi Nagar, Caves Road",Near Western Exp Hoghway,Jogeshwari East,Mumbai,400060,19.136251,72.855012,Maharashtra,10:00:00,22:00:00,1,0,1,1,1,1,1,1088,23-10-2015
149,Metro Tailors & Clothiers,Sajawat Building Achole Road,Near Sangam Medical Store,Nallasopara East,Thane,401209,19.41501,72.8222243,Maharashtra,10:00:00,22:00:00,1,1,1,1,1,1,1,1088,23-10-2015
150,Kalpana Telecom,"2, Sanjay Gandhi Nagar, Gumpha Raod",Nr. Western Express Highway,Jogeshwari East,Mumbai,400060,19.13629,72.855071,Maharashtra,10:00:00,22:00:00,1,0,1,1,1,1,1,1089,28-10-2015
151,S.A.Fashions,"25/B, Suyog Co-op Housing society, Bimbisar Nagar",MHADA colony,Goregaon East,Mumbai,400065,19.0667206,72.8948302,Maharashtra,09:30:00,22:00:00,1,0,1,1,1,1,1,1090,28-10-2015
152,S.A.Fashions,"R/1, Dwarkamai Housing, D.M road,Vakola pipeline.",Behind Dr.Mehta clinic,Santacruz East,Mumbai,400055,19.0739609,72.8497287,Maharashtra,09:30:00,22:00:00,1,0,1,1,1,1,1,1090,28-10-2015
153,S.A.Fashions,"Shop No.2 Deshmukh Chawl,Gandhi Nagar",E ward,Jogeshwari East,Mumbai,400060,19.136287,72.856344,Maharashtra,09:30:00,22:00:00,1,0,1,1,1,1,1,1090,28-10-2015
154,Sai Ganesh,"Shop No.2, Kaamruddin chawl, Prem Nagar, Quarters colony road",,Jogeshwari East,Mumbai,400060,19.135325,72.859238,Maharashtra,10:00:00,22:00:00,1,0,1,1,1,1,1,1091,28-10-2015
155,FAB Furnishing,"Shop No.14, Rizvi Park, S.V.Road",Besides Reliance Mall,Santacruz West,Mumbai,400054,19.088979,72.838313,Maharashtra,10:00:00,21:00:00,1,1,1,1,1,0,1,1092,28-10-2015
156,Springwell,"Shop No.E, India House No.1, August Kranti Marg.",Opposite Om Chamber,Santacruz West,Mumbai,400036,19.089297,72.838364,Maharashtra,10:00:00,20:00:00,1,1,1,1,1,1,1,1093,28-10-2015
157,Natraj Luggage,"Shop No.1, Poddar Chawl, S.V.Road.",Opposite Asha Parekh Hospital,Santacruz West,Mumbai,400054,19.082804,72.837964,Maharashtra,10:30:00,21:30:00,1,1,1,1,1,1,1,1094,28-10-2015
158,Sequence,"Shop No.4, Anju Shopping Centre, Tilak Road",,Santacruz West,Mumbai,400054,19.0827756,72.8349459,Maharashtra,10:00:00,21:00:00,1,1,1,1,0,1,1,1095,28-10-2015
159,Heniken,"Triveni CHS, Shop No.2 & 3, S.V.ROAD",,Santacruz West,Mumbai,400054,19.0815401,72.8359323,Maharashtra,10:30:00,21:00:00,1,1,1,1,1,1,1,1096,28-10-2015
160,DMV Khatri,"Shop No.1,Bombay Bazar Building,Stn. Road.",,Santacruz West,Mumbai,400054,19.08081,72.839298,Maharashtra,10:00:00,20:30:00,1,0,1,1,0,1,1,1097,28-10-2015
161,DMV Khatri,"30,Kamdar Shopping Center,Monghibai road.",Opposite Railway station,Vile Parle East,Mumbai,400057,19.0997975,72.8451217,Maharashtra,10:00:00,20:30:00,1,0,1,1,0,1,1,1097,28-10-2015
162,Dream Home,"Shop No.4, Rameshwar building,S.V.road.",Opposite Kohinoor Electronics,Santacruz West,Mumbai,400054,19.086488,72.838112,Maharashtra,10:00:00,20:30:00,1,1,1,1,0,1,1,1098,28-10-2015
163,Kurl-On Mattress Xpress,"Shop No.8, Darshan Smruti,174 S.V.road","Opposite Vijay sales, next to Airtel gallery",Santacruz West,Mumbai,400054,19.085107,72.838057,Maharashtra,11:00:00,21:00:00,1,1,1,1,1,1,1,1099,28-10-2015
164,Valcas,"Shop No.1, Omkar Apartment, S.V.Road",Opposite Reliance Mart,Santacruz West,Mumbai,400054,19.088531,72.838202,Maharashtra,11:00:00,21:00:00,1,1,1,1,1,1,1,1100,28-10-2015
165,Variation World,"#4,Dinar Building,Opposite Santacruz Station Road.",Opposite City Plaza,Santacruz West,Mumbai,400054,19.080897,72.838813,Maharashtra,10:30:00,09:30:00,1,1,1,1,0,1,1,1101,28-10-2015
166,Shriman,"6-7-8, Kothari Niwas, Sanatorium Lane.",,Ghatkopar West,Mumbai,400086,19.086273,72.905864,Maharashtra,10:00:00,21:30:00,1,1,1,1,1,1,1,1102,29-10-2015
167,Vishwakarma,"ShopNo.6, Sanskar Building, Hirachand Desai Road.",,Ghatkopar West,Mumbai,400086,19.088133,72.905779,Maharashtra,09:00:00,21:00:00,1,1,1,1,0,1,1,1103,29-10-2015
168,Famous,"Shop 157B & 3, Anjariya Sadan, L.B.S road.",Opposite Telephone exchange,Ghatkopar West,Mumbai,400086,19.087885,72.904684,Maharashtra,09:00:00,21:00:00,1,1,1,1,0,1,1,1104,29-10-2015
169,Zoom Mobile,"ShopNo.4, D.B.Trust Building,M.G.Road",Opposite Old Post Office,Ghatkopar West,Mumbai,400086,19.087716,72.905771,Maharashtra,10:30:00,21:30:00,1,1,1,1,1,1,1,1105,29-10-2015
170,Bhavi Collection,"Shop No.4, Tulsi Bhuvan, M.G.Road",Opposite Kapolwadi,Ghatkopar West,Mumbai,400086,19.087117,72.905801,Maharashtra,10:30:00,22:00:00,1,1,1,1,0,1,1,1106,29-10-2015
171,Dhanvant,"Chinman Nivas, Gopal Lane, M.G.Road.",Jain Dughdhalaya,Ghatkopar West,Mumbai,400086,19.087019,72.90574,Maharashtra,09:00:00,21:00:00,1,1,1,1,1,1,1,1107,29-10-2015
172,Vimal,"52, M.G.Road, Shop No.1, Kapol Wadi",,Ghatkopar West,Mumbai,400086,19.086959,72.905739,Maharashtra,09:00:00,20:30:00,1,1,1,1,0,1,1,1108,29-10-2015
173,Dhanvant,"Tulsi Bhavan, Gopal Lane, M.G.Road.",,Ghatkopar West,Mumbai,400086,19.087329,72.905607,Maharashtra,10:30:00,21:00:00,1,1,1,1,0,1,1,1109,29-10-2015
174,Just - 2,"Shop No.4, Rangwala Apartments, Sanatarium Lame, M.G.Road",,Ghatkopar West,Mumbai,400086,19.086281,72.905838,Maharashtra,10:00:00,22:00:00,1,1,1,1,1,1,1,1110,29-10-2015
175,Saloni NX,"Shop No.7, Elchiwala building, M.G.Road",Opposite Kapolwadi,Ghatkopar West,Mumbai,400086,19.086907,72.905756,Maharashtra,10:00:00,22:00:00,1,1,1,1,1,1,1,1114,29-10-2015
176,Gupta Watch Co.,"Laxmi Apartment, Shop no. 2-A, J.V.Road,Khot Lane",,Ghatkopar West,Mumbai,400086,19.087485,72.906356,Maharashtra,10:00:00,22:00:00,1,1,1,1,0,1,1,1116,02-11-2015
177,Royal Foam Furnishing,"10,New Alpana Co.op hsg. premises,LBS Marg",Off Khot Lane,Ghatkopar West,Mumbai,400086,19.088328,72.906425,Maharashtra,09:00:00,21:00:00,0,1,1,0,1,1,1,1117,02-11-2015
178,Mangal Opticians,"12, Neelkanth Shopping Centre, Navroji Lane",,Ghatkopar West,Mumbai,400086,19.084668,72.904961,Maharashtra,09:30:00,20:30:00,1,1,1,1,0,1,1,1118,02-11-2015
179,Episode - Asiad Plaza Santcruz West,"Asiad Plaza, Station Road",,Santacruz West,Mumbai,400054,19.0807241,72.7680865,Maharashtra,,,1,1,1,1,1,1,1,1119,05-11-2015
180,Aldo - Atria The Millennium Mall Worli,Atria,,Worli,Mumbai,400018,18.9912503,72.8146107,Maharashtra,,,1,1,1,1,1,1,1,1120,05-11-2015
181,Aldo Accessories - Atria The Millennium Mall Worli,Atria,,Worli,Mumbai,400018,18.9912503,72.8146107,Maharashtra,,,1,1,1,1,1,1,1,1121,05-11-2015
182,Archies Galleries - Atria The Millennium Mall Worli,Atria,,Worli,Mumbai,400018,18.9912503,72.8146107,Maharashtra,,,1,1,1,1,1,1,1,1122,05-11-2015
183,Baggit - Atria The Millennium Mall Worli,Atria,,Worli,Mumbai,400018,18.9912503,72.8146107,Maharashtra,,,1,1,1,1,1,1,1,1123,05-11-2015
184,COSTA COFFEE - Atria The Millennium Mall Worli,Atria,,Worli,Mumbai,400018,18.9912503,72.8146107,Maharashtra,,,1,1,1,1,1,1,1,1124,05-11-2015
185,HYPE - Atria The Millennium Mall Worli,Atria,,Worli,Mumbai,400018,18.9912503,72.8146107,Maharashtra,,,1,1,1,1,1,1,1,1125,05-11-2015
186,Queue Up - Atria The Millennium Mall Worli,Atria,,Worli,Mumbai,400018,18.9912503,72.8146107,Maharashtra,,,1,1,1,1,1,1,1,1126,05-11-2015
187,Rosebys - Atria The Millennium Mall Worli,Atria,,Worli,Mumbai,400018,18.9912503,72.8146107,Maharashtra,,,1,1,1,1,1,1,1,1127,05-11-2015
188,Sepia - Atria The Millennium Mall Worli,Atria,,Worli,Mumbai,400018,18.9912503,72.8146107,Maharashtra,,,1,1,1,1,1,1,1,1128,05-11-2015
189,Accessorize - Atria The Millennium Mall Worli,Atria,,Worli,Mumbai,400018,18.9912503,72.8146107,Maharashtra,,,1,1,1,1,1,1,1,1129,05-11-2015
190,AND - Atria The Millennium Mall Worli,Atria,,Worli,Mumbai,400018,18.9912503,72.8146107,Maharashtra,,,1,1,1,1,1,1,1,1130,05-11-2015
191,Art Karat - Atria The Millennium Mall Worli,Atria,,Worli,Mumbai,400018,18.9912503,72.8146107,Maharashtra,,,1,1,1,1,1,1,1,1131,05-11-2015
192,Catwalk - Atria The Millennium Mall Worli,Atria,,Worli,Mumbai,400018,18.9912503,72.8146107,Maharashtra,,,1,1,1,1,1,1,1,1132,05-11-2015
193,Charles & Keith - Atria The Millennium Mall Worli,Atria,,Worli,Mumbai,400018,18.9912503,72.8146107,Maharashtra,,,1,1,1,1,1,1,1,1133,05-11-2015
194,Chemistry - Atria The Millennium Mall Worli,Atria,,Worli,Mumbai,400018,18.9912503,72.8146107,Maharashtra,,,1,1,1,1,1,1,1,1134,05-11-2015
195,Collezioni Moda - Atria The Millennium Mall Worli,Atria,,Worli,Mumbai,400018,18.9912503,72.8146107,Maharashtra,,,1,1,1,1,1,1,1,1135,05-11-2015
196,JFK Just For Kids - Atria The Millennium Mall Worli,Atria,,Worli,Mumbai,400018,18.9912503,72.8146107,Maharashtra,,,1,1,1,1,1,1,1,1136,05-11-2015
197,La Senza - Atria The Millennium Mall Worli,Atria,,Worli,Mumbai,400018,18.9912503,72.8146107,Maharashtra,,,1,1,1,1,1,1,1,1137,05-11-2015
198,Mango - Atria The Millennium Mall Worli,Atria,,Worli,Mumbai,400018,18.9912503,72.8146107,Maharashtra,,,1,1,1,1,1,1,1,1138,05-11-2015
199,Patchi - Atria The Millennium Mall Worli,Atria,,Worli,Mumbai,400018,18.9912503,72.8146107,Maharashtra,,,1,1,1,1,1,1,1,1139,05-11-2015
200,Patchi - Atria The Millennium Mall Worli,Atria,,Worli,Mumbai,400018,18.9912503,72.8146107,Maharashtra,,,1,1,1,1,1,1,1,1139,05-11-2015
201,Promod - Atria The Millennium Mall Worli,Atria,,Worli,Mumbai,400018,18.9912503,72.8146107,Maharashtra,,,1,1,1,1,1,1,1,1140,05-11-2015
202,Swarovski - Atria The Millennium Mall Worli,Atria,,Worli,Mumbai,400018,18.9912503,72.8146107,Maharashtra,,,1,1,1,1,1,1,1,1141,05-11-2015
203,109f - Atria The Millennium Mall Worli,Atria,,Worli,Mumbai,400018,18.9912503,72.8146107,Maharashtra,,,1,1,1,1,1,1,1,1142,05-11-2015
204,Ashmina - Atria The Millennium Mall Worli,Atria,,Worli,Mumbai,400018,18.9912503,72.8146107,Maharashtra,,,1,1,1,1,1,1,1,1143,05-11-2015
205,Jashn - Atria The Millennium Mall Worli,Atria,,Worli,Mumbai,400018,18.9912503,72.8146107,Maharashtra,,,1,1,1,1,1,1,1,1144,05-11-2015
206,Allen Solly - Atria The Millennium Mall Worli,Atria,,Worli,Mumbai,400018,18.9912503,72.8146107,Maharashtra,,,1,1,1,1,1,1,1,1145,05-11-2015
207,Levi's - Atria The Millennium Mall Worli,Atria,,Worli,Mumbai,400018,18.9912503,72.8146107,Maharashtra,,,1,1,1,1,1,1,1,1146,05-11-2015
208,kaya skin clinic - Atria The Millennium Mall Worli,Atria,,Worli,Mumbai,400018,18.9912503,72.8146107,Maharashtra,,,1,1,1,1,1,1,1,1147,05-11-2015
209,kaya skin clinic - Atria The Millennium Mall Worli,Atria,,Worli,Mumbai,400018,18.9912503,72.8146107,Maharashtra,,,1,1,1,1,1,1,1,1147,05-11-2015
210,Kidology - Atria The Millennium Mall Worli,Atria,,Worli,Mumbai,400018,18.9912503,72.8146107,Maharashtra,,,1,1,1,1,1,1,1,1148,05-11-2015
211,Kidville - Atria The Millennium Mall Worli,Atria,,Worli,Mumbai,400018,18.9912503,72.8146107,Maharashtra,,,1,1,1,1,1,1,1,1149,05-11-2015
212,McDonald's - Big Shopping Centre Thane,"Big Shopping Centre, ",,Thane West,Thane,,19.2681968,72.9649687,Maharashtra,,,1,1,1,1,1,1,1,1150,05-11-2015
213,aLL the plus size store - Center One Mall Vashi,"Center One Mall, Sector 30/A, 33",,Vashi,Navi Mumbai,400705,19.067766,72.9950733,Maharashtra,,,1,1,1,1,1,1,1,1151,05-11-2015
214,ARROW - Center One Mall Vashi,"Center One Mall, Sector 30/A, 33",,Vashi,Navi Mumbai,400705,19.067766,72.9950733,Maharashtra,,,1,1,1,1,1,1,1,1152,05-11-2015
215,Indian Terrain - Center One Mall Vashi,"Center One Mall, Sector 30/A, 33",,Vashi,Navi Mumbai,400705,19.067766,72.9950733,Maharashtra,,,1,1,1,1,1,1,1,1153,05-11-2015
216,Mom & Me - Center One Mall Vashi,"Center One Mall, Sector 30/A, 33",,Vashi,Navi Mumbai,400705,19.067766,72.9950733,Maharashtra,,,1,1,1,1,1,1,1,1154,05-11-2015
217,pantaloons - Center One Mall Vashi,"Center One Mall, Sector 30/A, 33",,Vashi,Navi Mumbai,400705,19.067766,72.9950733,Maharashtra,,,1,1,1,1,1,1,1,1155,05-11-2015
218,Subway - Center One Mall Vashi,"Center One Mall, Sector 30/A, 33",,Vashi,Navi Mumbai,400705,19.067766,72.9950733,Maharashtra,,,1,1,1,1,1,1,1,1156,05-11-2015
219,Croma - Center One Mall Vashi,"Center One Mall, Ground Floor, Sector 30/A, 33",,Vashi,Navi Mumbai,400705,19.067766,72.9950733,Maharashtra,,,1,1,1,1,1,1,1,1157,05-11-2015
220,Metro Shoes - Center One Mall Vashi,"Center One Mall, Ground Floor, Sector 30/A, 33",,Vashi,Navi Mumbai,400705,19.067766,72.9950733,Maharashtra,,,1,1,1,1,1,1,1,1158,05-11-2015
221,Planet M - Center One Mall Vashi,"Center One Mall, Ground Floor, Sector 30/A, 33",,Vashi,Navi Mumbai,400705,19.067766,72.9950733,Maharashtra,,,1,1,1,1,1,1,1,1159,05-11-2015
222,Pure Gold Jewellers & Diamonds - Center One Mall Vashi,"Center One Mall, Ground Floor, Sector 30/A, 33",,Vashi,Navi Mumbai,400705,19.067766,72.9950733,Maharashtra,,,1,1,1,1,1,1,1,1160,05-11-2015
223,Spykar - Center One Mall Vashi,"Center One Mall, Ground Floor, Sector 30/A, 33",,Vashi,Navi Mumbai,400705,19.067766,72.9950733,Maharashtra,,,1,1,1,1,1,1,1,1161,05-11-2015
224,John Players - Center One Mall Vashi,"Center One Mall, First Floor, Sector 30/A, 33",,Vashi,Navi Mumbai,400705,19.067766,72.9950733,Maharashtra,,,1,1,1,1,1,1,1,1162,05-11-2015
225,Mufti - Center One Mall Vashi,"Center One Mall, First Floor, Sector 30/A, 33",,Vashi,Navi Mumbai,400705,19.067766,72.9950733,Maharashtra,,,1,1,1,1,1,1,1,1163,05-11-2015
226,Total Sports & Fitness - Center One Mall Vashi,"Center One Mall, First Floor, Sector 30/A, 33",,Vashi,Navi Mumbai,400705,19.067766,72.9950733,Maharashtra,,,1,1,1,1,1,1,1,1164,05-11-2015
227,Soie - Center One Mall Vashi,"Center One Mall, Second Floor, Sector 30/A, 33",,Vashi,Navi Mumbai,400705,19.067766,72.9950733,Maharashtra,,,1,1,1,1,1,1,1,1165,05-11-2015
228,7D Adventure Ride - Center One Mall Vashi,"Center One Mall, Third Floor, Sector 30/A, 33",,Vashi,Navi Mumbai,400705,19.067766,72.9950733,Maharashtra,,,1,1,1,1,1,1,1,1166,05-11-2015
229,McDonald's - Center One Mall Vashi,"Center One Mall, Third Floor, Sector 30/A, 33",,Vashi,Navi Mumbai,400705,19.067766,72.9950733,Maharashtra,,,1,1,1,1,1,1,1,1150,05-11-2015
230,Cinemax - City Centre Mall Vashi Navi Mumbai,City Centre Mall,,Vashi,Navi Mumbai,,19.08405,73.0049214,Maharashtra,,,1,1,1,1,1,1,1,1167,05-11-2015
231,Lee - City Centre Mall Vashi Navi Mumbai,City Centre Mall,,Vashi,Navi Mumbai,,19.08405,73.0049214,Maharashtra,,,1,1,1,1,1,1,1,1168,05-11-2015
232,Levi's - City Centre Mall Vashi Navi Mumbai,City Centre Mall,,Vashi,Navi Mumbai,,19.08405,73.0049214,Maharashtra,,,1,1,1,1,1,1,1,1146,05-11-2015
233,Rosebys - City Centre Mall Vashi Navi Mumbai,City Centre Mall,,Vashi,Navi Mumbai,,19.08405,73.0049214,Maharashtra,,,1,1,1,1,1,1,1,1127,05-11-2015
234,Wrangler - City Centre Mall Vashi Navi Mumbai,City Centre Mall,,Vashi,Navi Mumbai,,19.08405,73.0049214,Maharashtra,,,1,1,1,1,1,1,1,1169,05-11-2015
235,Globus - City Centre Mall Vashi Navi Mumbai,City Centre Mall,,Vashi,Navi Mumbai,,19.08405,73.0049214,Maharashtra,,,1,1,1,1,1,1,1,1170,05-11-2015
236,BIBA - City Plaza Mall Santcruz West,"City Plaza Shopping Mall, Station Road",,Santacruz West,Mumbai,,19.0804805,72.7688594,Maharashtra,,,1,1,1,1,1,1,1,1171,05-11-2015
237,BIBA - CR2 Mall Nariman Point,"CR2 Mall, Barrister Rajni Patel Marg",,Churchgate,Mumbai,400021,18.926545,72.8226261,Maharashtra,,,1,1,1,1,1,1,1,1171,05-11-2015
238,Chemistry - CR2 Mall Nariman Point,"CR2 Mall, Barrister Rajni Patel Marg",,Churchgate,Mumbai,400021,18.926545,72.8226261,Maharashtra,,,1,1,1,1,1,1,1,1134,05-11-2015
239,Eske - CR2 Mall Nariman Point,"CR2 Mall, Barrister Rajni Patel Marg",,Churchgate,Mumbai,400021,18.926545,72.8226261,Maharashtra,,,1,1,1,1,1,1,1,1172,05-11-2015
240,Ethos Swiss Watch Studios - CR2 Mall Nariman Point,"CR2 Mall, Barrister Rajni Patel Marg",,Churchgate,Mumbai,400021,18.926545,72.8226261,Maharashtra,,,1,1,1,1,1,1,1,1173,05-11-2015
241,Swarovski - CR2 Mall Nariman Point,"CR2 Mall, Barrister Rajni Patel Marg",,Churchgate,Mumbai,400021,18.926545,72.8226261,Maharashtra,,,1,1,1,1,1,1,1,1141,05-11-2015
242,ZODIAC - CR2 Mall Nariman Point,"CR2 Mall, Barrister Rajni Patel Marg",,Churchgate,Mumbai,400021,18.926545,72.8226261,Maharashtra,,,1,1,1,1,1,1,1,1174,05-11-2015
243,HIDESIGN - CR2 Mall Nariman Point,"CR2 Mall, Ground Floor, Barrister Rajni Patel Marg",,Churchgate,Mumbai,400021,18.926545,72.8226261,Maharashtra,,,1,1,1,1,1,1,1,1175,05-11-2015
244,Ruby's Bar & Grill - CR2 Mall Nariman Point,"CR2 Mall, Ground Floor, Barrister Rajni Patel Marg",,Churchgate,Mumbai,400021,18.926545,72.8226261,Maharashtra,,,1,1,1,1,1,1,1,1176,05-11-2015
245,Spaghetti Kitchen - CR2 Mall Nariman Point,"CR2 Mall, First Floor, Barrister Rajni Patel Marg",,Churchgate,Mumbai,400021,18.926545,72.8226261,Maharashtra,,,1,1,1,1,1,1,1,1177,05-11-2015
246,Subway - CR2 Mall Nariman Point,"CR2 Mall, First Floor, Barrister Rajni Patel Marg",,Churchgate,Mumbai,400021,18.926545,72.8226261,Maharashtra,,,1,1,1,1,1,1,1,1156,05-11-2015
247,INOX - CR2 Mall Nariman Point,"CR2 Mall, Second Floor, Barrister Rajni Patel Marg",,Churchgate,Mumbai,400021,18.926545,72.8226261,Maharashtra,,,1,1,1,1,1,1,1,1178,05-11-2015
248,aLL the plus size store - Crossroads Mall Haji Ali,"SoBo Central, Pandit Malviya Road",,Haji Ali,Mumbai,400034,18.9758161,72.8120429,Maharashtra,,,1,1,1,1,1,1,1,1151,05-11-2015
249,Celio - Crossroads Mall Haji Ali,"SoBo Central, Pandit Malviya Road",,Haji Ali,Mumbai,400034,18.9758161,72.8120429,Maharashtra,,,1,1,1,1,1,1,1,1179,05-11-2015
250,McDonald's - Crossroads Mall Haji Ali,"SoBo Central, Pandit Malviya Road",,Haji Ali,Mumbai,400034,18.9758161,72.8120429,Maharashtra,,,1,1,1,1,1,1,1,1150,05-11-2015
251,Swarovski - Crossroads Mall Haji Ali,"SoBo Central, Pandit Malviya Road",,Haji Ali,Mumbai,400034,18.9758161,72.8120429,Maharashtra,,,1,1,1,1,1,1,1,1141,05-11-2015
252,Catwalk - Crossroads Mall Haji Ali,"SoBo Central, Ground Floor, Pandit Malviya Road",,Haji Ali,Mumbai,400034,18.9758161,72.8120429,Maharashtra,,,1,1,1,1,1,1,1,1132,05-11-2015
253,Lee - Dattani Square Mall Vasai,"Dattani Square Mall, First Floor, Dattani Village, Near Telephone Exchange, Papdi Road",,Vasai West,Thane,401202,19.3592535,72.8122199,Maharashtra,,,1,1,1,1,1,1,1,1168,05-11-2015
254,CLINIQUE - Dynamix Mall Juhu,"Dynamix Mall, Jvpd Scheme, St Snyaneshwar Marg",Next to Chandan Cinema,Juhu,Mumbai,400049,19.1147217,72.8273751,Maharashtra,,,1,1,1,1,1,1,1,1180,05-11-2015
255,Esprit - Dynamix Mall Juhu,"Dynamix Mall, Jvpd Scheme, St Snyaneshwar Marg",Next to Chandan Cinema,Juhu,Mumbai,400049,19.1147217,72.8273751,Maharashtra,,,1,1,1,1,1,1,1,1181,05-11-2015
256,M.A.C - Dynamix Mall Juhu,"Dynamix Mall, Jvpd Scheme, St Snyaneshwar Marg",Next to Chandan Cinema,Juhu,Mumbai,400049,19.1147217,72.8273751,Maharashtra,,,1,1,1,1,1,1,1,1182,05-11-2015
257,SHOPPERS STOP - Dynamix Mall Juhu,"Dynamix Mall, Jvpd Scheme, St Snyaneshwar Marg",Next to Chandan Cinema,Juhu,Mumbai,400049,19.1147217,72.8273751,Maharashtra,,,1,1,1,1,1,1,1,1183,05-11-2015
258,TOMMY HILFIGER - Dynamix Mall Juhu,"Dynamix Mall, Jvpd Scheme, St Snyaneshwar Marg",Next to Chandan Cinema,Juhu,Mumbai,400049,19.1147217,72.8273751,Maharashtra,,,1,1,1,1,1,1,1,1184,05-11-2015
259,Crossword Book Store - Dynamix Mall Juhu,"Dynamix Mall, Ground Floor, Jvpd Scheme, St Snyaneshwar Marg",Next to Chandan Cinema,Juhu,Mumbai,400049,19.1147217,72.8273751,Maharashtra,,,1,1,1,1,1,1,1,1185,05-11-2015
260,PVR Cinemas - Dynamix Mall Juhu,"Dynamix Mall, Fifth Floor, Jvpd Scheme, St Snyaneshwar Marg",Next to Chandan Cinema,Juhu,Mumbai,400049,19.1147217,72.8273751,Maharashtra,,,1,1,1,1,1,1,1,1186,05-11-2015
261,Cinemax - Eternity Mall Thane,"Eternity Mall, LBS Road",,Thane West,Thane,,19.1871543,72.9627891,Maharashtra,,,1,1,1,1,1,1,1,1167,05-11-2015
262,Globus - Eternity Mall Thane,"Eternity Mall, LBS Road",,Thane West,Thane,,19.1871543,72.9627891,Maharashtra,,,1,1,1,1,1,1,1,1170,05-11-2015
263,John Players - Eternity Mall Thane,"Eternity Mall, Ground Floor, LBS Road",,Thane West,Thane,,19.1871543,72.9627891,Maharashtra,,,1,1,1,1,1,1,1,1162,05-11-2015
264,Planet M - Eternity Mall Thane,"Eternity Mall, Ground Floor, LBS Road",,Thane West,Thane,,19.1871543,72.9627891,Maharashtra,,,1,1,1,1,1,1,1,1159,05-11-2015
265,McDonald's - Evershine Mall Malad,"Evershine Mall, Ground Floor, Link Road,",Near Mind Space,"Malad West,",Mumbai,400064,19.1791203,72.8361517,Maharashtra,,,1,1,1,1,1,1,1,1150,05-11-2015
266,The Irish House - Fun Republic Andheri,"Fun Republic, First Floor, Plot No.844/4, Veera Desai Road, Shah Industrial Estate",,Andheri West,Mumbai,400053,19.1347497,72.832778,Maharashtra,,,1,1,1,1,1,1,1,1187,05-11-2015
267,Aldo - G7 Mall Seven Bunglow Andheri West,"G7 Mall, Seven Bunglow, J.P.Road",,Andheri West,Mumbai,400053,19.1309678,72.8200503,Maharashtra,,,1,1,1,1,1,1,1,1120,05-11-2015
268,Inglot - G7 Mall Seven Bunglow Andheri West,"G7 Mall, Seven Bunglow, J.P.Road",,Andheri West,Mumbai,400053,19.1309678,72.8200503,Maharashtra,,,1,1,1,1,1,1,1,1188,05-11-2015
269,Queue Up - G7 Mall Seven Bunglow Andheri West,"G7 Mall, Seven Bunglow, J.P.Road",,Andheri West,Mumbai,400053,19.1309678,72.8200503,Maharashtra,,,1,1,1,1,1,1,1,1126,05-11-2015
270,Charles & Keith - G7 Mall Seven Bunglow Andheri West,"G7 Mall, Ground Floor, Seven Bunglow, J.P.Road",,Andheri West,Mumbai,400053,19.1309678,72.8200503,Maharashtra,,,1,1,1,1,1,1,1,1133,05-11-2015
271,Chemistry - G7 Mall Seven Bunglow Andheri West,"G7 Mall, Ground Floor, Seven Bunglow, J.P.Road",,Andheri West,Mumbai,400053,19.1309678,72.8200503,Maharashtra,,,1,1,1,1,1,1,1,1134,05-11-2015
272,Iraya - G7 Mall Seven Bunglow Andheri West,"G7 Mall, Ground Floor, Seven Bunglow, J.P.Road",,Andheri West,Mumbai,400053,19.1309678,72.8200503,Maharashtra,,,1,1,1,1,1,1,1,1189,05-11-2015
273,La Senza - G7 Mall Seven Bunglow Andheri West,"G7 Mall, Ground Floor, Seven Bunglow, J.P.Road",,Andheri West,Mumbai,400053,19.1309678,72.8200503,Maharashtra,,,1,1,1,1,1,1,1,1137,05-11-2015
274,Mango - G7 Mall Seven Bunglow Andheri West,"G7 Mall, Ground Floor, Seven Bunglow, J.P.Road",,Andheri West,Mumbai,400053,19.1309678,72.8200503,Maharashtra,,,1,1,1,1,1,1,1,1138,05-11-2015
275,Nine West - G7 Mall Seven Bunglow Andheri West,"G7 Mall, Ground Floor, Seven Bunglow, J.P.Road",,Andheri West,Mumbai,400053,19.1309678,72.8200503,Maharashtra,,,1,1,1,1,1,1,1,1190,05-11-2015
276,Promod - G7 Mall Seven Bunglow Andheri West,"G7 Mall, Ground Floor, Seven Bunglow, J.P.Road",,Andheri West,Mumbai,400053,19.1309678,72.8200503,Maharashtra,,,1,1,1,1,1,1,1,1140,05-11-2015
277,ARROW - Growel's 101 Kandivali East,"Growels 101 Mall, Akurli Road, Off Western Express Highway",,Kandivali East,Mumbai,400101,19.2033141,72.8595953,Maharashtra,,,1,1,1,1,1,1,1,1152,05-11-2015
278,Cinemax - Growel's 101 Kandivali East,"Growels 101 Mall, Akurli Road, Off Western Express Highway",,Kandivali East,Mumbai,400101,19.2033141,72.8595953,Maharashtra,,,1,1,1,1,1,1,1,1167,05-11-2015
279,Crossword Book Store - Growel's 101 Kandivali East,"Growels 101 Mall, Akurli Road, Off Western Express Highway",,Kandivali East,Mumbai,400101,19.2033141,72.8595953,Maharashtra,,,1,1,1,1,1,1,1,1185,05-11-2015
280,pantaloons - Growel's 101 Kandivali East,"Growels 101 Mall, Akurli Road, Off Western Express Highway",,Kandivali East,Mumbai,400101,19.2033141,72.8595953,Maharashtra,,,1,1,1,1,1,1,1,1155,05-11-2015
281,Passion United Astro Field - Growel's 101 Kandivali East,"Growels 101 Mall, Akurli Road, Off Western Express Highway",,Kandivali East,Mumbai,400101,19.2033141,72.8595953,Maharashtra,,,1,1,1,1,1,1,1,1191,05-11-2015
282,AND - Growel's 101 Kandivali East,"Growels 101 Mall, Ground Floor, Akurli Road, Off Western Express Highway",,Kandivali East,Mumbai,400101,19.2033141,72.8595953,Maharashtra,,,1,1,1,1,1,1,1,1130,05-11-2015
283,Ayesha Accessories - Growel's 101 Kandivali East,"Growels 101 Mall, Ground Floor, Akurli Road, Off Western Express Highway",,Kandivali East,Mumbai,400101,19.2033141,72.8595953,Maharashtra,,,1,1,1,1,1,1,1,1192,05-11-2015
284,Celio - Growel's 101 Kandivali East,"Growels 101 Mall, Ground Floor, Akurli Road, Off Western Express Highway",,Kandivali East,Mumbai,400101,19.2033141,72.8595953,Maharashtra,,,1,1,1,1,1,1,1,1179,05-11-2015
285,COSTA COFFEE - Growel's 101 Kandivali East,"Growels 101 Mall, Ground Floor, Akurli Road, Off Western Express Highway",,Kandivali East,Mumbai,400101,19.2033141,72.8595953,Maharashtra,,,1,1,1,1,1,1,1,1124,05-11-2015
286,Enrich Salon & Academy - Growel's 101 Kandivali East,"Growels 101 Mall, Ground Floor, Akurli Road, Off Western Express Highway",,Kandivali East,Mumbai,400101,19.2033141,72.8595953,Maharashtra,,,1,1,1,1,1,1,1,1193,05-11-2015
287,Foresight Opticals - Growel's 101 Kandivali East,"Growels 101 Mall, Ground Floor, Akurli Road, Off Western Express Highway",,Kandivali East,Mumbai,400101,19.2033141,72.8595953,Maharashtra,,,1,1,1,1,1,1,1,1194,05-11-2015
288,Gitanjali Jewels - Growel's 101 Kandivali East,"Growels 101 Mall, Ground Floor, Akurli Road, Off Western Express Highway",,Kandivali East,Mumbai,400101,19.2033141,72.8595953,Maharashtra,,,1,1,1,1,1,1,1,1195,05-11-2015
289,Globus - Growel's 101 Kandivali East,"Growels 101 Mall, Ground Floor, Akurli Road, Off Western Express Highway",,Kandivali East,Mumbai,400101,19.2033141,72.8595953,Maharashtra,,,1,1,1,1,1,1,1,1170,05-11-2015
290,HIDESIGN - Growel's 101 Kandivali East,"Growels 101 Mall, Ground Floor, Akurli Road, Off Western Express Highway",,Kandivali East,Mumbai,400101,19.2033141,72.8595953,Maharashtra,,,1,1,1,1,1,1,1,1175,05-11-2015
291,KAZO - Growel's 101 Kandivali East,"Growels 101 Mall, Ground Floor, Akurli Road, Off Western Express Highway",,Kandivali East,Mumbai,400101,19.2033141,72.8595953,Maharashtra,,,1,1,1,1,1,1,1,1196,05-11-2015
292,Levi's - Growel's 101 Kandivali East,"Growels 101 Mall, Ground Floor, Akurli Road, Off Western Express Highway",,Kandivali East,Mumbai,400101,19.2033141,72.8595953,Maharashtra,,,1,1,1,1,1,1,1,1146,05-11-2015
293,McDonald's - Growel's 101 Kandivali East,"Growels 101 Mall, Ground Floor, Akurli Road, Off Western Express Highway",,Kandivali East,Mumbai,400101,19.2033141,72.8595953,Maharashtra,,,1,1,1,1,1,1,1,1150,05-11-2015
294,Mochi - Growel's 101 Kandivali East,"Growels 101 Mall, Ground Floor, Akurli Road, Off Western Express Highway",,Kandivali East,Mumbai,400101,19.2033141,72.8595953,Maharashtra,,,1,1,1,1,1,1,1,1197,05-11-2015
295,Basics Life - Growel's 101 Kandivali East,"Growels 101 Mall, First Floor, Akurli Road, Off Western Express Highway",,Kandivali East,Mumbai,400101,19.2033141,72.8595953,Maharashtra,,,1,1,1,1,1,1,1,1198,05-11-2015
296,Bombay High Fashions - Growel's 101 Kandivali East,"Growels 101 Mall, First Floor, Akurli Road, Off Western Express Highway",,Kandivali East,Mumbai,400101,19.2033141,72.8595953,Maharashtra,,,1,1,1,1,1,1,1,1199,05-11-2015
297,eZone - Growel's 101 Kandivali East,"Growels 101 Mall, First Floor, Akurli Road, Off Western Express Highway",,Kandivali East,Mumbai,400101,19.2033141,72.8595953,Maharashtra,,,1,1,1,1,1,1,1,1200,05-11-2015
298,John Players - Growel's 101 Kandivali East,"Growels 101 Mall, First Floor, Akurli Road, Off Western Express Highway",,Kandivali East,Mumbai,400101,19.2033141,72.8595953,Maharashtra,,,1,1,1,1,1,1,1,1162,05-11-2015
299,Mufti - Growel's 101 Kandivali East,"Growels 101 Mall, First Floor, Akurli Road, Off Western Express Highway",,Kandivali East,Mumbai,400101,19.2033141,72.8595953,Maharashtra,,,1,1,1,1,1,1,1,1163,05-11-2015
300,PROVOGUE - Growel's 101 Kandivali East,"Growels 101 Mall, First Floor, Akurli Road, Off Western Express Highway",,Kandivali East,Mumbai,400101,19.2033141,72.8595953,Maharashtra,,,1,1,1,1,1,1,1,1201,05-11-2015
301,Spykar - Growel's 101 Kandivali East,"Growels 101 Mall, First Floor, Akurli Road, Off Western Express Highway",,Kandivali East,Mumbai,400101,19.2033141,72.8595953,Maharashtra,,,1,1,1,1,1,1,1,1161,05-11-2015
302,Timezone - Growel's 101 Kandivali East,"Growels 101 Mall, First Floor, Akurli Road, Off Western Express Highway",,Kandivali East,Mumbai,400101,19.2033141,72.8595953,Maharashtra,,,1,1,1,1,1,1,1,1202,05-11-2015
303,Barbie Store - Growel's 101 Kandivali East,"Growels 101 Mall, Second Floor, Akurli Road, Off Western Express Highway",,Kandivali East,Mumbai,400101,19.2033141,72.8595953,Maharashtra,,,1,1,1,1,1,1,1,1203,05-11-2015
304,Ethnicity - Growel's 101 Kandivali East,"Growels 101 Mall, Second Floor, Akurli Road, Off Western Express Highway",,Kandivali East,Mumbai,400101,19.2033141,72.8595953,Maharashtra,,,1,1,1,1,1,1,1,1204,05-11-2015
305,Global Desi - Growel's 101 Kandivali East,"Growels 101 Mall, Second Floor, Akurli Road, Off Western Express Highway",,Kandivali East,Mumbai,400101,19.2033141,72.8595953,Maharashtra,,,1,1,1,1,1,1,1,1205,05-11-2015
306,Jashn - Growel's 101 Kandivali East,"Growels 101 Mall, Second Floor, Akurli Road, Off Western Express Highway",,Kandivali East,Mumbai,400101,19.2033141,72.8595953,Maharashtra,,,1,1,1,1,1,1,1,1144,05-11-2015
307,Mainland China - Growel's 101 Kandivali East,"Growels 101 Mall, Second Floor, Akurli Road, Off Western Express Highway",,Kandivali East,Mumbai,400101,19.2033141,72.8595953,Maharashtra,,,1,1,1,1,1,1,1,1206,05-11-2015
308,Thai Elements Spa - Growel's 101 Kandivali East,"Growels 101 Mall, Second Floor, Akurli Road, Off Western Express Highway",,Kandivali East,Mumbai,400101,19.2033141,72.8595953,Maharashtra,,,1,1,1,1,1,1,1,1207,05-11-2015
309,Cookie Man - Growel's 101 Kandivali East,"Growels 101 Mall, Third Floor, Akurli Road, Off Western Express Highway",,Kandivali East,Mumbai,400101,19.2033141,72.8595953,Maharashtra,,,1,1,1,1,1,1,1,1208,05-11-2015
310,Helion Entertainment - Growel's 101 Kandivali East,"Growels 101 Mall, Third Floor, Akurli Road, Off Western Express Highway",,Kandivali East,Mumbai,400101,19.2033141,72.8595953,Maharashtra,,,1,1,1,1,1,1,1,1209,05-11-2015
311,Subway - Growel's 101 Kandivali East,"Growels 101 Mall, Third Floor, Akurli Road, Off Western Express Highway",,Kandivali East,Mumbai,400101,19.2033141,72.8595953,Maharashtra,,,1,1,1,1,1,1,1,1156,05-11-2015
312,Zaffran - Growel's 101 Kandivali East,"Growels 101 Mall, Third Floor, Akurli Road, Off Western Express Highway",,Kandivali East,Mumbai,400101,19.2033141,72.8595953,Maharashtra,,,1,1,1,1,1,1,1,1210,05-11-2015
313,Westside - Haiko Mall Powai,"Haiko Mall, Hiranandani Gardens, Central Avenue",,Powai,Mumbai,400076,19.1239285,72.9094407,Maharashtra,,,1,1,1,1,1,1,1,1211,05-11-2015
314,COSTA COFFEE - Haiko Mall Powai,"Haiko Mall, Ground Floor, Hiranandani Gardens, Central Avenue",,Powai,Mumbai,400076,19.1239285,72.9094407,Maharashtra,,,1,1,1,1,1,1,1,1124,05-11-2015
315,Crossword Book Store - Haiko Mall Powai,"Haiko Mall, Ground Floor, Hiranandani Gardens, Central Avenue",,Powai,Mumbai,400076,19.1239285,72.9094407,Maharashtra,,,1,1,1,1,1,1,1,1185,05-11-2015
316,Planet M - Haiko Mall Powai,"Haiko Mall, Ground Floor, Hiranandani Gardens, Central Avenue",,Powai,Mumbai,400076,19.1239285,72.9094407,Maharashtra,,,1,1,1,1,1,1,1,1159,05-11-2015
317,eZone - Haiko Mall Powai,"Haiko Mall, Second Floor, Hiranandani Gardens, Central Avenue",,Powai,Mumbai,400076,19.1239285,72.9094407,Maharashtra,,,1,1,1,1,1,1,1,1200,05-11-2015
318,Nyassa - Haiko Mall Powai,"Haiko Mall, Second Floor, Hiranandani Gardens, Central Avenue",,Powai,Mumbai,400076,19.1239285,72.9094407,Maharashtra,,,1,1,1,1,1,1,1,1212,05-11-2015
319,Carnival Cinemas - Harmony Mall Goregaon,"Harmony Mall, Second Floor, Link Road, Colony No 1",,Goregaon West,Mumbai,400104,19.1574558,72.8349404,Maharashtra,,,1,1,1,1,1,1,1,1213,05-11-2015
320,Brand Factory - High Street Mall Thane,"High Street Mall, Old Agrea Road, Sainath Nagar",,Majiwada,Thane,400607,19.2171733,72.9789809,Maharashtra,,,1,1,1,1,1,1,1,1214,05-11-2015
321,Vision Express - High Street Mall Thane,"High Street Mall, Ground Floor, Old Agrea Road, Sainath Nagar",,Majiwada,Thane,400607,19.2171733,72.9789809,Maharashtra,,,1,1,1,1,1,1,1,1215,05-11-2015
322,Anita Dongre - High Street Phoenix Lower Parel,"High Street Phoenix Mall , Senapati Bapat Marg",,Lower Parel,Mumbai,400013,18.9961651,72.8265085,Maharashtra,,,1,1,1,1,1,1,1,1216,05-11-2015
323,BIBA - High Street Phoenix Lower Parel,"High Street Phoenix Mall , Senapati Bapat Marg",,Lower Parel,Mumbai,400013,18.9961651,72.8265085,Maharashtra,,,1,1,1,1,1,1,1,1171,05-11-2015
324,Bombay Blue - High Street Phoenix Lower Parel,"High Street Phoenix Mall , Senapati Bapat Marg",,Lower Parel,Mumbai,400013,18.9961651,72.8265085,Maharashtra,,,1,1,1,1,1,1,1,1217,05-11-2015
325,Burger King - High Street Phoenix Lower Parel,"High Street Phoenix Mall , Senapati Bapat Marg",,Lower Parel,Mumbai,400013,18.9961651,72.8265085,Maharashtra,,,1,1,1,1,1,1,1,1218,05-11-2015
326,CHICCO - High Street Phoenix Lower Parel,"High Street Phoenix Mall , Senapati Bapat Marg",,Lower Parel,Mumbai,400013,18.9961651,72.8265085,Maharashtra,,,1,1,1,1,1,1,1,1219,05-11-2015
327,Copper Chimney - High Street Phoenix Lower Parel,"High Street Phoenix Mall , Senapati Bapat Marg",,Lower Parel,Mumbai,400013,18.9961651,72.8265085,Maharashtra,,,1,1,1,1,1,1,1,1220,05-11-2015
328,COSTA COFFEE - High Street Phoenix Lower Parel,"High Street Phoenix Mall , Senapati Bapat Marg",,Lower Parel,Mumbai,400013,18.9961651,72.8265085,Maharashtra,,,1,1,1,1,1,1,1,1124,05-11-2015
329,Cottonworld - High Street Phoenix Lower Parel,"High Street Phoenix Mall , Senapati Bapat Marg",,Lower Parel,Mumbai,400013,18.9961651,72.8265085,Maharashtra,,,1,1,1,1,1,1,1,1221,05-11-2015
330,Croma - High Street Phoenix Lower Parel,"High Street Phoenix Mall , Senapati Bapat Marg",,Lower Parel,Mumbai,400013,18.9961651,72.8265085,Maharashtra,,,1,1,1,1,1,1,1,1157,05-11-2015
331,D'damas - High Street Phoenix Lower Parel,"High Street Phoenix Mall , Senapati Bapat Marg",,Lower Parel,Mumbai,400013,18.9961651,72.8265085,Maharashtra,,,1,1,1,1,1,1,1,1222,05-11-2015
332,Elite Fish Pedicure - High Street Phoenix Lower Parel,"High Street Phoenix Mall , Senapati Bapat Marg",,Lower Parel,Mumbai,400013,18.9961651,72.8265085,Maharashtra,,,1,1,1,1,1,1,1,1223,05-11-2015
333,Episode - High Street Phoenix Lower Parel,"High Street Phoenix Mall , Senapati Bapat Marg",,Lower Parel,Mumbai,400013,18.9961651,72.8265085,Maharashtra,,,1,1,1,1,1,1,1,1119,05-11-2015
334,Fabindia - High Street Phoenix Lower Parel,"High Street Phoenix Mall , Senapati Bapat Marg",,Lower Parel,Mumbai,400013,18.9961651,72.8265085,Maharashtra,,,1,1,1,1,1,1,1,1224,05-11-2015
335,FACES Cosmetics - High Street Phoenix Lower Parel,"High Street Phoenix Mall , Senapati Bapat Marg",,Lower Parel,Mumbai,400013,18.9961651,72.8265085,Maharashtra,,,1,1,1,1,1,1,1,1225,05-11-2015
336,FOREVER NEW - High Street Phoenix Lower Parel,"High Street Phoenix Mall , Senapati Bapat Marg",,Lower Parel,Mumbai,400013,18.9961651,72.8265085,Maharashtra,,,1,1,1,1,1,1,1,1226,05-11-2015
337,Haagen-Dazs - High Street Phoenix Lower Parel,"High Street Phoenix Mall , Senapati Bapat Marg",,Lower Parel,Mumbai,400013,18.9961651,72.8265085,Maharashtra,,,1,1,1,1,1,1,1,1227,05-11-2015
338,Hamleys - High Street Phoenix Lower Parel,"High Street Phoenix Mall , Senapati Bapat Marg",,Lower Parel,Mumbai,400013,18.9961651,72.8265085,Maharashtra,,,1,1,1,1,1,1,1,1228,05-11-2015
339,Lancome - High Street Phoenix Lower Parel,"High Street Phoenix Mall , Senapati Bapat Marg",,Lower Parel,Mumbai,400013,18.9961651,72.8265085,Maharashtra,,,1,1,1,1,1,1,1,1229,05-11-2015
340,Lancome - High Street Phoenix Lower Parel,"High Street Phoenix Mall , Senapati Bapat Marg",,Lower Parel,Mumbai,400013,18.9961651,72.8265085,Maharashtra,,,1,1,1,1,1,1,1,1229,05-11-2015
341,Levi's - High Street Phoenix Lower Parel,"High Street Phoenix Mall , Senapati Bapat Marg",,Lower Parel,Mumbai,400013,18.9961651,72.8265085,Maharashtra,,,1,1,1,1,1,1,1,1146,05-11-2015
342,Louis Philippe - High Street Phoenix Lower Parel,"High Street Phoenix Mall , Senapati Bapat Marg",,Lower Parel,Mumbai,400013,18.9961651,72.8265085,Maharashtra,,,1,1,1,1,1,1,1,1230,05-11-2015
343,LUSH - High Street Phoenix Lower Parel,"High Street Phoenix Mall , Senapati Bapat Marg",,Lower Parel,Mumbai,400013,18.9961651,72.8265085,Maharashtra,,,1,1,1,1,1,1,1,1231,05-11-2015
344,Mai Tai Lounge - High Street Phoenix Lower Parel,"High Street Phoenix Mall , Senapati Bapat Marg",,Lower Parel,Mumbai,400013,18.9961651,72.8265085,Maharashtra,,,1,1,1,1,1,1,1,1232,05-11-2015
345,Marks & Spencer - High Street Phoenix Lower Parel,"High Street Phoenix Mall , Senapati Bapat Marg",,Lower Parel,Mumbai,400013,18.9961651,72.8265085,Maharashtra,,,1,1,1,1,1,1,1,1233,05-11-2015
346,McDonald's - High Street Phoenix Lower Parel,"High Street Phoenix Mall , Senapati Bapat Marg",,Lower Parel,Mumbai,400013,18.9961651,72.8265085,Maharashtra,,,1,1,1,1,1,1,1,1150,05-11-2015
347,Metro Shoes - High Street Phoenix Lower Parel,"High Street Phoenix Mall , Senapati Bapat Marg",,Lower Parel,Mumbai,400013,18.9961651,72.8265085,Maharashtra,,,1,1,1,1,1,1,1,1158,05-11-2015
348,Noodle Bar - High Street Phoenix Lower Parel,"High Street Phoenix Mall , Senapati Bapat Marg",,Lower Parel,Mumbai,400013,18.9961651,72.8265085,Maharashtra,,,1,1,1,1,1,1,1,1234,05-11-2015
349,Nyassa - High Street Phoenix Lower Parel,"High Street Phoenix Mall , Senapati Bapat Marg",,Lower Parel,Mumbai,400013,18.9961651,72.8265085,Maharashtra,,,1,1,1,1,1,1,1,1212,05-11-2015
350,Omved - High Street Phoenix Lower Parel,"High Street Phoenix Mall , Senapati Bapat Marg",,Lower Parel,Mumbai,400013,18.9961651,72.8265085,Maharashtra,,,1,1,1,1,1,1,1,1235,05-11-2015
351,pantaloons - High Street Phoenix Lower Parel,"High Street Phoenix Mall , Senapati Bapat Marg",,Lower Parel,Mumbai,400013,18.9961651,72.8265085,Maharashtra,,,1,1,1,1,1,1,1,1155,05-11-2015
352,Pepe Jeans London - High Street Phoenix Lower Parel,"High Street Phoenix Mall , Senapati Bapat Marg",,Lower Parel,Mumbai,400013,18.9961651,72.8265085,Maharashtra,,,1,1,1,1,1,1,1,1236,05-11-2015
353,PVR Cinemas - High Street Phoenix Lower Parel,"High Street Phoenix Mall , Senapati Bapat Marg",,Lower Parel,Mumbai,400013,18.9961651,72.8265085,Maharashtra,,,1,1,1,1,1,1,1,1186,05-11-2015
354,PYLONES - High Street Phoenix Lower Parel,"High Street Phoenix Mall , Senapati Bapat Marg",,Lower Parel,Mumbai,400013,18.9961651,72.8265085,Maharashtra,,,1,1,1,1,1,1,1,1237,05-11-2015
355,Quiksilver - High Street Phoenix Lower Parel,"High Street Phoenix Mall , Senapati Bapat Marg",,Lower Parel,Mumbai,400013,18.9961651,72.8265085,Maharashtra,,,1,1,1,1,1,1,1,1238,05-11-2015
356,remanika - High Street Phoenix Lower Parel,"High Street Phoenix Mall , Senapati Bapat Marg",,Lower Parel,Mumbai,400013,18.9961651,72.8265085,Maharashtra,,,1,1,1,1,1,1,1,1239,05-11-2015
357,Rhysetta - High Street Phoenix Lower Parel,"High Street Phoenix Mall , Senapati Bapat Marg",,Lower Parel,Mumbai,400013,18.9961651,72.8265085,Maharashtra,,,1,1,1,1,1,1,1,1240,05-11-2015
358,Simply Potatoes - High Street Phoenix Lower Parel,"High Street Phoenix Mall , Senapati Bapat Marg",,Lower Parel,Mumbai,400013,18.9961651,72.8265085,Maharashtra,,,1,1,1,1,1,1,1,1241,05-11-2015
359,Smoke House Deli - High Street Phoenix Lower Parel,"High Street Phoenix Mall , Senapati Bapat Marg",,Lower Parel,Mumbai,400013,18.9961651,72.8265085,Maharashtra,,,1,1,1,1,1,1,1,1242,05-11-2015
360,Spaghetti Kitchen - High Street Phoenix Lower Parel,"High Street Phoenix Mall , Senapati Bapat Marg",,Lower Parel,Mumbai,400013,18.9961651,72.8265085,Maharashtra,,,1,1,1,1,1,1,1,1177,05-11-2015
361,Spykar - High Street Phoenix Lower Parel,"High Street Phoenix Mall , Senapati Bapat Marg",,Lower Parel,Mumbai,400013,18.9961651,72.8265085,Maharashtra,,,1,1,1,1,1,1,1,1161,05-11-2015
362,Starbucks Coffee - High Street Phoenix Lower Parel,"High Street Phoenix Mall , Senapati Bapat Marg",,Lower Parel,Mumbai,400013,18.9961651,72.8265085,Maharashtra,,,1,1,1,1,1,1,1,1243,05-11-2015
363,The Body Shop - High Street Phoenix Lower Parel,"High Street Phoenix Mall , Senapati Bapat Marg",,Lower Parel,Mumbai,400013,18.9961651,72.8265085,Maharashtra,,,1,1,1,1,1,1,1,1244,05-11-2015
364,Chimp - High Street Phoenix Lower Parel,"High Street Phoenix Mall , Senapati Bapat Marg",,Lower Parel,Mumbai,400013,18.9961651,72.8265085,Maharashtra,,,1,1,1,1,1,1,1,1245,05-11-2015
365,The Irish House - High Street Phoenix Lower Parel,"High Street Phoenix Mall , Senapati Bapat Marg",,Lower Parel,Mumbai,400013,18.9961651,72.8265085,Maharashtra,,,1,1,1,1,1,1,1,1187,05-11-2015
366,The St. Regis Mumbai - High Street Phoenix Lower Parel,"High Street Phoenix Mall , Senapati Bapat Marg",,Lower Parel,Mumbai,400013,18.9961651,72.8265085,Maharashtra,,,1,1,1,1,1,1,1,1246,05-11-2015
367,Tresmode - High Street Phoenix Lower Parel,"High Street Phoenix Mall , Senapati Bapat Marg",,Lower Parel,Mumbai,400013,18.9961651,72.8265085,Maharashtra,,,1,1,1,1,1,1,1,1247,05-11-2015
368,Tryst - High Street Phoenix Lower Parel,"High Street Phoenix Mall , Senapati Bapat Marg",,Lower Parel,Mumbai,400013,18.9961651,72.8265085,Maharashtra,,,1,1,1,1,1,1,1,1248,05-11-2015
369,Van Heusen - High Street Phoenix Lower Parel,"High Street Phoenix Mall , Senapati Bapat Marg",,Lower Parel,Mumbai,400013,18.9961651,72.8265085,Maharashtra,,,1,1,1,1,1,1,1,1249,05-11-2015
370,W for Woman - High Street Phoenix Lower Parel,"High Street Phoenix Mall , Senapati Bapat Marg",,Lower Parel,Mumbai,400013,18.9961651,72.8265085,Maharashtra,,,1,1,1,1,1,1,1,1250,05-11-2015
371,Wrangler - High Street Phoenix Lower Parel,"High Street Phoenix Mall , Senapati Bapat Marg",,Lower Parel,Mumbai,400013,18.9961651,72.8265085,Maharashtra,,,1,1,1,1,1,1,1,1169,05-11-2015
372,ZODIAC - High Street Phoenix Lower Parel,"High Street Phoenix Mall , Senapati Bapat Marg",,Lower Parel,Mumbai,400013,18.9961651,72.8265085,Maharashtra,,,1,1,1,1,1,1,1,1174,05-11-2015
373,Mineral - High Street Phoenix Lower Parel,"High Street Phoenix Mall , Ground Floor, Senapati Bapat Marg",,Lower Parel,Mumbai,400013,18.9961651,72.8265085,Maharashtra,,,1,1,1,1,1,1,1,1251,05-11-2015
374,Accessorize - High Street Phoenix Lower Parel,"High Street Phoenix Mall , Ground Floor, Senapati Bapat Marg",,Lower Parel,Mumbai,400013,18.9961651,72.8265085,Maharashtra,,,1,1,1,1,1,1,1,1129,05-11-2015
375,adidas - High Street Phoenix Lower Parel,"High Street Phoenix Mall , Ground Floor, Senapati Bapat Marg",,Lower Parel,Mumbai,400013,18.9961651,72.8265085,Maharashtra,,,1,1,1,1,1,1,1,1252,05-11-2015
376,Allen Solly - High Street Phoenix Lower Parel,"High Street Phoenix Mall , Ground Floor, Senapati Bapat Marg",,Lower Parel,Mumbai,400013,18.9961651,72.8265085,Maharashtra,,,1,1,1,1,1,1,1,1145,05-11-2015
377,Archies Galleries - High Street Phoenix Lower Parel,"High Street Phoenix Mall , Ground Floor, Senapati Bapat Marg",,Lower Parel,Mumbai,400013,18.9961651,72.8265085,Maharashtra,,,1,1,1,1,1,1,1,1122,05-11-2015
378,arttd'inox - High Street Phoenix Lower Parel,"High Street Phoenix Mall , Ground Floor, Senapati Bapat Marg",,Lower Parel,Mumbai,400013,18.9961651,72.8265085,Maharashtra,,,1,1,1,1,1,1,1,897,05-11-2015
379,Ayesha Accessories - High Street Phoenix Lower Parel,"High Street Phoenix Mall , Ground Floor, Senapati Bapat Marg",,Lower Parel,Mumbai,400013,18.9961651,72.8265085,Maharashtra,,,1,1,1,1,1,1,1,1192,05-11-2015
380,Canon Image Square - High Street Phoenix Lower Parel,"High Street Phoenix Mall , Ground Floor, Senapati Bapat Marg",,Lower Parel,Mumbai,400013,18.9961651,72.8265085,Maharashtra,,,1,1,1,1,1,1,1,1253,05-11-2015
381,Clarks - High Street Phoenix Lower Parel,"High Street Phoenix Mall , Ground Floor, Senapati Bapat Marg",,Lower Parel,Mumbai,400013,18.9961651,72.8265085,Maharashtra,,,1,1,1,1,1,1,1,1254,05-11-2015
382,Columbia Sportswear - High Street Phoenix Lower Parel,"High Street Phoenix Mall , Ground Floor, Senapati Bapat Marg",,Lower Parel,Mumbai,400013,18.9961651,72.8265085,Maharashtra,,,1,1,1,1,1,1,1,1255,05-11-2015
383,Crocs - High Street Phoenix Lower Parel,"High Street Phoenix Mall , Ground Floor, Senapati Bapat Marg",,Lower Parel,Mumbai,400013,18.9961651,72.8265085,Maharashtra,,,1,1,1,1,1,1,1,1256,05-11-2015
384,Dolce Vita - High Street Phoenix Lower Parel,"High Street Phoenix Mall , Ground Floor, Senapati Bapat Marg",,Lower Parel,Mumbai,400013,18.9961651,72.8265085,Maharashtra,,,1,1,1,1,1,1,1,1257,05-11-2015
385,GAS Jeans - High Street Phoenix Lower Parel,"High Street Phoenix Mall , Ground Floor, Senapati Bapat Marg",,Lower Parel,Mumbai,400013,18.9961651,72.8265085,Maharashtra,,,1,1,1,1,1,1,1,1258,05-11-2015
386,Helios Watches - High Street Phoenix Lower Parel,"High Street Phoenix Mall , Ground Floor, Senapati Bapat Marg",,Lower Parel,Mumbai,400013,18.9961651,72.8265085,Maharashtra,,,1,1,1,1,1,1,1,1259,05-11-2015
387,Inc.5 - High Street Phoenix Lower Parel,"High Street Phoenix Mall , Ground Floor, Senapati Bapat Marg",,Lower Parel,Mumbai,400013,18.9961651,72.8265085,Maharashtra,,,1,1,1,1,1,1,1,1260,05-11-2015
388,Jashn - High Street Phoenix Lower Parel,"High Street Phoenix Mall , Ground Floor, Senapati Bapat Marg",,Lower Parel,Mumbai,400013,18.9961651,72.8265085,Maharashtra,,,1,1,1,1,1,1,1,1144,05-11-2015
389,Lee - High Street Phoenix Lower Parel,"High Street Phoenix Mall , Ground Floor, Senapati Bapat Marg",,Lower Parel,Mumbai,400013,18.9961651,72.8265085,Maharashtra,,,1,1,1,1,1,1,1,1168,05-11-2015
390,lifestyle - High Street Phoenix Lower Parel,"High Street Phoenix Mall , Ground Floor, Senapati Bapat Marg",,Lower Parel,Mumbai,400013,18.9961651,72.8265085,Maharashtra,,,1,1,1,1,1,1,1,1261,05-11-2015
391,Mad Over Donuts - High Street Phoenix Lower Parel,"High Street Phoenix Mall , Ground Floor, Senapati Bapat Marg",,Lower Parel,Mumbai,400013,18.9961651,72.8265085,Maharashtra,,,1,1,1,1,1,1,1,1262,05-11-2015
392,Om Book Shop - High Street Phoenix Lower Parel,"High Street Phoenix Mall , Ground Floor, Senapati Bapat Marg",,Lower Parel,Mumbai,400013,18.9961651,72.8265085,Maharashtra,,,1,1,1,1,1,1,1,1263,05-11-2015
393,PROVOGUE - High Street Phoenix Lower Parel,"High Street Phoenix Mall , Ground Floor, Senapati Bapat Marg",,Lower Parel,Mumbai,400013,18.9961651,72.8265085,Maharashtra,,,1,1,1,1,1,1,1,1201,05-11-2015
394,Staples - High Street Phoenix Lower Parel,"High Street Phoenix Mall , Ground Floor, Senapati Bapat Marg",,Lower Parel,Mumbai,400013,18.9961651,72.8265085,Maharashtra,,,1,1,1,1,1,1,1,1264,05-11-2015
395,Subway - High Street Phoenix Lower Parel,"High Street Phoenix Mall , Ground Floor, Senapati Bapat Marg",,Lower Parel,Mumbai,400013,18.9961651,72.8265085,Maharashtra,,,1,1,1,1,1,1,1,1156,05-11-2015
396,The Bombay Store - High Street Phoenix Lower Parel,"High Street Phoenix Mall , Ground Floor, Senapati Bapat Marg",,Lower Parel,Mumbai,400013,18.9961651,72.8265085,Maharashtra,,,1,1,1,1,1,1,1,1265,05-11-2015
397,Timberland - High Street Phoenix Lower Parel,"High Street Phoenix Mall , Ground Floor, Senapati Bapat Marg",,Lower Parel,Mumbai,400013,18.9961651,72.8265085,Maharashtra,,,1,1,1,1,1,1,1,1266,05-11-2015
398,William Penn - High Street Phoenix Lower Parel,"High Street Phoenix Mall , Ground Floor, Senapati Bapat Marg",,Lower Parel,Mumbai,400013,18.9961651,72.8265085,Maharashtra,,,1,1,1,1,1,1,1,1267,05-11-2015
399,ZODIAC - High Street Phoenix Lower Parel,"High Street Phoenix Mall , Ground Floor, Senapati Bapat Marg",,Lower Parel,Mumbai,400013,18.9961651,72.8265085,Maharashtra,,,1,1,1,1,1,1,1,1174,05-11-2015
400,109f - High Street Phoenix Lower Parel,"High Street Phoenix Mall , First Floor, Senapati Bapat Marg",,Lower Parel,Mumbai,400013,18.9961651,72.8265085,Maharashtra,,,1,1,1,1,1,1,1,1142,05-11-2015
401,AND - High Street Phoenix Lower Parel,"High Street Phoenix Mall , First Floor, Senapati Bapat Marg",,Lower Parel,Mumbai,400013,18.9961651,72.8265085,Maharashtra,,,1,1,1,1,1,1,1,1130,05-11-2015
402,Anju Modi - High Street Phoenix Lower Parel,"High Street Phoenix Mall , First Floor, Senapati Bapat Marg",,Lower Parel,Mumbai,400013,18.9961651,72.8265085,Maharashtra,,,1,1,1,1,1,1,1,1268,05-11-2015
403,ARROW - High Street Phoenix Lower Parel,"High Street Phoenix Mall , First Floor, Senapati Bapat Marg",,Lower Parel,Mumbai,400013,18.9961651,72.8265085,Maharashtra,,,1,1,1,1,1,1,1,1152,05-11-2015
404,Avirate - High Street Phoenix Lower Parel,"High Street Phoenix Mall , First Floor, Senapati Bapat Marg",,Lower Parel,Mumbai,400013,18.9961651,72.8265085,Maharashtra,,,1,1,1,1,1,1,1,1269,05-11-2015
405,Cottonworld - High Street Phoenix Lower Parel,"High Street Phoenix Mall , First Floor, Senapati Bapat Marg",,Lower Parel,Mumbai,400013,18.9961651,72.8265085,Maharashtra,,,1,1,1,1,1,1,1,1221,05-11-2015
406,Cream Centre - High Street Phoenix Lower Parel,"High Street Phoenix Mall , First Floor, Senapati Bapat Marg",,Lower Parel,Mumbai,400013,18.9961651,72.8265085,Maharashtra,,,1,1,1,1,1,1,1,1270,05-11-2015
407,Dessange Salon and Spa - High Street Phoenix Lower Parel,"High Street Phoenix Mall , First Floor, Senapati Bapat Marg",,Lower Parel,Mumbai,400013,18.9961651,72.8265085,Maharashtra,,,1,1,1,1,1,1,1,1271,05-11-2015
408,Game4u - High Street Phoenix Lower Parel,"High Street Phoenix Mall , First Floor, Senapati Bapat Marg",,Lower Parel,Mumbai,400013,18.9961651,72.8265085,Maharashtra,,,1,1,1,1,1,1,1,1272,05-11-2015
409,Krispy Kreme - High Street Phoenix Lower Parel,"High Street Phoenix Mall , First Floor, Senapati Bapat Marg",,Lower Parel,Mumbai,400013,18.9961651,72.8265085,Maharashtra,,,1,1,1,1,1,1,1,1273,05-11-2015
410,maspar - High Street Phoenix Lower Parel,"High Street Phoenix Mall , First Floor, Senapati Bapat Marg",,Lower Parel,Mumbai,400013,18.9961651,72.8265085,Maharashtra,,,1,1,1,1,1,1,1,1274,05-11-2015
411,Mothercare - High Street Phoenix Lower Parel,"High Street Phoenix Mall , First Floor, Senapati Bapat Marg",,Lower Parel,Mumbai,400013,18.9961651,72.8265085,Maharashtra,,,1,1,1,1,1,1,1,1275,05-11-2015
412,Sukho Thai - The Thai Foot Spa - High Street Phoenix Lower Parel,"High Street Phoenix Mall , First Floor, Senapati Bapat Marg",,Lower Parel,Mumbai,400013,18.9961651,72.8265085,Maharashtra,,,1,1,1,1,1,1,1,1276,05-11-2015
413,Tanishq - High Street Phoenix Lower Parel,"High Street Phoenix Mall , First Floor, Senapati Bapat Marg",,Lower Parel,Mumbai,400013,18.9961651,72.8265085,Maharashtra,,,1,1,1,1,1,1,1,1277,05-11-2015
414,VLCC - High Street Phoenix Lower Parel,"High Street Phoenix Mall , First Floor, Senapati Bapat Marg",,Lower Parel,Mumbai,400013,18.9961651,72.8265085,Maharashtra,,,1,1,1,1,1,1,1,1278,05-11-2015
415,Wills Lifestyle - High Street Phoenix Lower Parel,"High Street Phoenix Mall , First Floor, Senapati Bapat Marg",,Lower Parel,Mumbai,400013,18.9961651,72.8265085,Maharashtra,,,1,1,1,1,1,1,1,1279,05-11-2015
416,California Pizza Kitchen (CPK) - High Street Phoenix Lower Parel,"High Street Phoenix Mall , Second Floor, Senapati Bapat Marg",,Lower Parel,Mumbai,400013,18.9961651,72.8265085,Maharashtra,,,1,1,1,1,1,1,1,1280,05-11-2015
417,Burger King - Infiniti Mall Andheri West,"Infiniti Mall -  Andheri, New Link Road, Oshiwara",,Andheri West,Mumbai,400053,19.1412664,72.8287605,Maharashtra,,,1,1,1,1,1,1,1,1218,05-11-2015
418,Cinemax - Infiniti Mall Andheri West,"Infiniti Mall -  Andheri, New Link Road, Oshiwara",,Andheri West,Mumbai,400053,19.1412664,72.8287605,Maharashtra,,,1,1,1,1,1,1,1,1167,05-11-2015
419,Cookie Man - Infiniti Mall Andheri West,"Infiniti Mall -  Andheri, New Link Road, Oshiwara",,Andheri West,Mumbai,400053,19.1412664,72.8287605,Maharashtra,,,1,1,1,1,1,1,1,1208,05-11-2015
420,GAS Jeans - Infiniti Mall Andheri West,"Infiniti Mall -  Andheri, New Link Road, Oshiwara",,Andheri West,Mumbai,400053,19.1412664,72.8287605,Maharashtra,,,1,1,1,1,1,1,1,1258,05-11-2015
421,Global Desi - Infiniti Mall Andheri West,"Infiniti Mall -  Andheri, New Link Road, Oshiwara",,Andheri West,Mumbai,400053,19.1412664,72.8287605,Maharashtra,,,1,1,1,1,1,1,1,1205,05-11-2015
422,Idezzerts - Infiniti Mall Andheri West,"Infiniti Mall -  Andheri, New Link Road, Oshiwara",,Andheri West,Mumbai,400053,19.1412664,72.8287605,Maharashtra,,,1,1,1,1,1,1,1,1281,05-11-2015
423,Juice Lounge - Infiniti Mall Andheri West,"Infiniti Mall -  Andheri, New Link Road, Oshiwara",,Andheri West,Mumbai,400053,19.1412664,72.8287605,Maharashtra,,,1,1,1,1,1,1,1,1282,05-11-2015
424,Landmark - Infiniti Mall Andheri West,"Infiniti Mall -  Andheri, New Link Road, Oshiwara",,Andheri West,Mumbai,400053,19.1412664,72.8287605,Maharashtra,,,1,1,1,1,1,1,1,1283,05-11-2015
425,Levi's - Infiniti Mall Andheri West,"Infiniti Mall -  Andheri, New Link Road, Oshiwara",,Andheri West,Mumbai,400053,19.1412664,72.8287605,Maharashtra,,,1,1,1,1,1,1,1,1146,05-11-2015
426,Panchavati Gaurav - Infiniti Mall Andheri West,"Infiniti Mall -  Andheri, New Link Road, Oshiwara",,Andheri West,Mumbai,400053,19.1412664,72.8287605,Maharashtra,,,1,1,1,1,1,1,1,1284,05-11-2015
427,remanika - Infiniti Mall Andheri West,"Infiniti Mall -  Andheri, New Link Road, Oshiwara",,Andheri West,Mumbai,400053,19.1412664,72.8287605,Maharashtra,,,1,1,1,1,1,1,1,1239,05-11-2015
428,Subway - Infiniti Mall Andheri West,"Infiniti Mall -  Andheri, New Link Road, Oshiwara",,Andheri West,Mumbai,400053,19.1412664,72.8287605,Maharashtra,,,1,1,1,1,1,1,1,1156,05-11-2015
429,U.S. POLO ASSN. - Infiniti Mall Andheri West,"Infiniti Mall -  Andheri, New Link Road, Oshiwara",,Andheri West,Mumbai,400053,19.1412664,72.8287605,Maharashtra,,,1,1,1,1,1,1,1,1285,05-11-2015
430,Westside - Infiniti Mall Andheri West,"Infiniti Mall -  Andheri, New Link Road, Oshiwara",,Andheri West,Mumbai,400053,19.1412664,72.8287605,Maharashtra,,,1,1,1,1,1,1,1,1211,05-11-2015
431,AND - Infiniti Mall Andheri West,"Infiniti Mall -  Andheri, Ground Floor, New Link Road, Oshiwara",,Andheri West,Mumbai,400053,19.1412664,72.8287605,Maharashtra,,,1,1,1,1,1,1,1,1130,05-11-2015
432,BIBA - Infiniti Mall Andheri West,"Infiniti Mall -  Andheri, Ground Floor, New Link Road, Oshiwara",,Andheri West,Mumbai,400053,19.1412664,72.8287605,Maharashtra,,,1,1,1,1,1,1,1,1171,05-11-2015
433,Catwalk - Infiniti Mall Andheri West,"Infiniti Mall -  Andheri, Ground Floor, New Link Road, Oshiwara",,Andheri West,Mumbai,400053,19.1412664,72.8287605,Maharashtra,,,1,1,1,1,1,1,1,1132,05-11-2015
434,Jashn - Infiniti Mall Andheri West,"Infiniti Mall -  Andheri, Ground Floor, New Link Road, Oshiwara",,Andheri West,Mumbai,400053,19.1412664,72.8287605,Maharashtra,,,1,1,1,1,1,1,1,1144,05-11-2015
435,Mom & Me - Infiniti Mall Andheri West,"Infiniti Mall -  Andheri, Ground Floor, New Link Road, Oshiwara",,Andheri West,Mumbai,400053,19.1412664,72.8287605,Maharashtra,,,1,1,1,1,1,1,1,1154,05-11-2015
436,ONLY - Infiniti Mall Andheri West,"Infiniti Mall -  Andheri, Ground Floor, New Link Road, Oshiwara",,Andheri West,Mumbai,400053,19.1412664,72.8287605,Maharashtra,,,1,1,1,1,1,1,1,1286,05-11-2015
437,PROVOGUE - Infiniti Mall Andheri West,"Infiniti Mall -  Andheri, Ground Floor, New Link Road, Oshiwara",,Andheri West,Mumbai,400053,19.1412664,72.8287605,Maharashtra,,,1,1,1,1,1,1,1,1201,05-11-2015
438,Starbucks Coffee - Infiniti Mall Andheri West,"Infiniti Mall -  Andheri, Ground Floor, New Link Road, Oshiwara",,Andheri West,Mumbai,400053,19.1412664,72.8287605,Maharashtra,,,1,1,1,1,1,1,1,1243,05-11-2015
439,Van Heusen Woman - Infiniti Mall Andheri West,"Infiniti Mall -  Andheri, Ground Floor, New Link Road, Oshiwara",,Andheri West,Mumbai,400053,19.1412664,72.8287605,Maharashtra,,,1,1,1,1,1,1,1,1287,05-11-2015
440,Van Heusen Woman - Infiniti Mall Andheri West,"Infiniti Mall -  Andheri, Ground Floor, New Link Road, Oshiwara",,Andheri West,Mumbai,400053,19.1412664,72.8287605,Maharashtra,,,1,1,1,1,1,1,1,1287,05-11-2015
441,VERO MODA - Infiniti Mall Andheri West,"Infiniti Mall -  Andheri, Ground Floor, New Link Road, Oshiwara",,Andheri West,Mumbai,400053,19.1412664,72.8287605,Maharashtra,,,1,1,1,1,1,1,1,1288,05-11-2015
442,ZODIAC - Infiniti Mall Andheri West,"Infiniti Mall -  Andheri, Ground Floor, New Link Road, Oshiwara",,Andheri West,Mumbai,400053,19.1412664,72.8287605,Maharashtra,,,1,1,1,1,1,1,1,1174,05-11-2015
443,adidas - Infiniti Mall Andheri West,"Infiniti Mall -  Andheri, First Floor, New Link Road, Oshiwara",,Andheri West,Mumbai,400053,19.1412664,72.8287605,Maharashtra,,,1,1,1,1,1,1,1,1252,05-11-2015
444,Archies Galleries - Infiniti Mall Andheri West,"Infiniti Mall -  Andheri, First Floor, New Link Road, Oshiwara",,Andheri West,Mumbai,400053,19.1412664,72.8287605,Maharashtra,,,1,1,1,1,1,1,1,1122,05-11-2015
445,Collezioni Moda - Infiniti Mall Andheri West,"Infiniti Mall -  Andheri, First Floor, New Link Road, Oshiwara",,Andheri West,Mumbai,400053,19.1412664,72.8287605,Maharashtra,,,1,1,1,1,1,1,1,1135,05-11-2015
446,Mochi - Infiniti Mall Andheri West,"Infiniti Mall -  Andheri, First Floor, New Link Road, Oshiwara",,Andheri West,Mumbai,400053,19.1412664,72.8287605,Maharashtra,,,1,1,1,1,1,1,1,1197,05-11-2015
447,Mufti - Infiniti Mall Andheri West,"Infiniti Mall -  Andheri, First Floor, New Link Road, Oshiwara",,Andheri West,Mumbai,400053,19.1412664,72.8287605,Maharashtra,,,1,1,1,1,1,1,1,1163,05-11-2015
448,Pepe Jeans London - Infiniti Mall Andheri West,"Infiniti Mall -  Andheri, First Floor, New Link Road, Oshiwara",,Andheri West,Mumbai,400053,19.1412664,72.8287605,Maharashtra,,,1,1,1,1,1,1,1,1236,05-11-2015
449,Games The Shop - Infiniti Mall Andheri West,"Infiniti Mall -  Andheri, Second Floor, New Link Road, Oshiwara",,Andheri West,Mumbai,400053,19.1412664,72.8287605,Maharashtra,,,1,1,1,1,1,1,1,1289,05-11-2015
450,Karigari Jewelry - Infiniti Mall Andheri West,"Infiniti Mall -  Andheri, Second Floor, New Link Road, Oshiwara",,Andheri West,Mumbai,400053,19.1412664,72.8287605,Maharashtra,,,1,1,1,1,1,1,1,1290,05-11-2015
451,McDonald's - Infiniti Mall Andheri West,"Infiniti Mall -  Andheri, Second Floor, New Link Road, Oshiwara",,Andheri West,Mumbai,400053,19.1412664,72.8287605,Maharashtra,,,1,1,1,1,1,1,1,1150,05-11-2015
452,pantaloons - Infiniti Mall Andheri West,"Infiniti Mall -  Andheri, Second Floor, New Link Road, Oshiwara",,Andheri West,Mumbai,400053,19.1412664,72.8287605,Maharashtra,,,1,1,1,1,1,1,1,1155,05-11-2015
453,Accessorize - Infiniti Mall Malad West,"Infiniti Mall - Malad, Link Road",,Malad West,Mumbai,400064,19.184836,72.834121,Maharashtra,,,1,1,1,1,1,1,1,1129,05-11-2015
454,adidas - Infiniti Mall Malad West,"Infiniti Mall - Malad, Link Road",,Malad West,Mumbai,400064,19.184836,72.834121,Maharashtra,,,1,1,1,1,1,1,1,1252,05-11-2015
455,Archies Galleries - Infiniti Mall Malad West,"Infiniti Mall - Malad, Link Road",,Malad West,Mumbai,400064,19.184836,72.834121,Maharashtra,,,1,1,1,1,1,1,1,1122,05-11-2015
456,Ayesha Accessories - Infiniti Mall Malad West,"Infiniti Mall - Malad, Link Road",,Malad West,Mumbai,400064,19.184836,72.834121,Maharashtra,,,1,1,1,1,1,1,1,1192,05-11-2015
457,BIBA - Infiniti Mall Malad West,"Infiniti Mall - Malad, Link Road",,Malad West,Mumbai,400064,19.184836,72.834121,Maharashtra,,,1,1,1,1,1,1,1,1171,05-11-2015
458,Boggi Milano - Infiniti Mall Malad West,"Infiniti Mall - Malad, Link Road",,Malad West,Mumbai,400064,19.184836,72.834121,Maharashtra,,,1,1,1,1,1,1,1,1291,05-11-2015
459,Bombay Blue - Infiniti Mall Malad West,"Infiniti Mall - Malad, Link Road",,Malad West,Mumbai,400064,19.184836,72.834121,Maharashtra,,,1,1,1,1,1,1,1,1217,05-11-2015
460,Burger King - Infiniti Mall Malad West,"Infiniti Mall - Malad, Link Road",,Malad West,Mumbai,400064,19.184836,72.834121,Maharashtra,,,1,1,1,1,1,1,1,1218,05-11-2015
461,California Pizza Kitchen (CPK) - Infiniti Mall Malad West,"Infiniti Mall - Malad, Link Road",,Malad West,Mumbai,400064,19.184836,72.834121,Maharashtra,,,1,1,1,1,1,1,1,1280,05-11-2015
462,Cinemax - Infiniti Mall Malad West,"Infiniti Mall - Malad, Link Road",,Malad West,Mumbai,400064,19.184836,72.834121,Maharashtra,,,1,1,1,1,1,1,1,1167,05-11-2015
463,Clarks - Infiniti Mall Malad West,"Infiniti Mall - Malad, Link Road",,Malad West,Mumbai,400064,19.184836,72.834121,Maharashtra,,,1,1,1,1,1,1,1,1254,05-11-2015
464,Colorbar - Infiniti Mall Malad West,"Infiniti Mall - Malad, Link Road",,Malad West,Mumbai,400064,19.184836,72.834121,Maharashtra,,,1,1,1,1,1,1,1,1292,05-11-2015
465,Gini & Jony - Infiniti Mall Malad West,"Infiniti Mall - Malad, Link Road",,Malad West,Mumbai,400064,19.184836,72.834121,Maharashtra,,,1,1,1,1,1,1,1,1293,05-11-2015
466,Hamleys - Infiniti Mall Malad West,"Infiniti Mall - Malad, Link Road",,Malad West,Mumbai,400064,19.184836,72.834121,Maharashtra,,,1,1,1,1,1,1,1,1228,05-11-2015
467,HIDESIGN - Infiniti Mall Malad West,"Infiniti Mall - Malad, Link Road",,Malad West,Mumbai,400064,19.184836,72.834121,Maharashtra,,,1,1,1,1,1,1,1,1175,05-11-2015
468,Idezzerts - Infiniti Mall Malad West,"Infiniti Mall - Malad, Link Road",,Malad West,Mumbai,400064,19.184836,72.834121,Maharashtra,,,1,1,1,1,1,1,1,1281,05-11-2015
469,La Senza - Infiniti Mall Malad West,"Infiniti Mall - Malad, Link Road",,Malad West,Mumbai,400064,19.184836,72.834121,Maharashtra,,,1,1,1,1,1,1,1,1137,05-11-2015
470,Max Fashion - Infiniti Mall Malad West,"Infiniti Mall - Malad, Link Road",,Malad West,Mumbai,400064,19.184836,72.834121,Maharashtra,,,1,1,1,1,1,1,1,1294,05-11-2015
471,Superdry - Infiniti Mall Malad West,"Infiniti Mall - Malad, Link Road",,Malad West,Mumbai,400064,19.184836,72.834121,Maharashtra,,,1,1,1,1,1,1,1,1295,05-11-2015
472,U.S. POLO ASSN. - Infiniti Mall Malad West,"Infiniti Mall - Malad, Link Road",,Malad West,Mumbai,400064,19.184836,72.834121,Maharashtra,,,1,1,1,1,1,1,1,1285,05-11-2015
473,Westside - Infiniti Mall Malad West,"Infiniti Mall - Malad, Link Road",,Malad West,Mumbai,400064,19.184836,72.834121,Maharashtra,,,1,1,1,1,1,1,1,1211,05-11-2015
474,Wills Lifestyle - Infiniti Mall Malad West,"Infiniti Mall - Malad, Link Road",,Malad West,Mumbai,400064,19.184836,72.834121,Maharashtra,,,1,1,1,1,1,1,1,1279,05-11-2015
475,Wrangler - Infiniti Mall Malad West,"Infiniti Mall - Malad, Link Road",,Malad West,Mumbai,400064,19.184836,72.834121,Maharashtra,,,1,1,1,1,1,1,1,1169,05-11-2015
476,ZARA - Infiniti Mall Malad West,"Infiniti Mall - Malad, Link Road",,Malad West,Mumbai,400064,19.184836,72.834121,Maharashtra,,,1,1,1,1,1,1,1,1296,05-11-2015
477,Aldo - Infiniti Mall Malad West,"Infiniti Mall - Malad, Ground Floor, Link Road",,Malad West,Mumbai,400064,19.184836,72.834121,Maharashtra,,,1,1,1,1,1,1,1,1120,05-11-2015
478,AND - Infiniti Mall Malad West,"Infiniti Mall - Malad, Ground Floor, Link Road",,Malad West,Mumbai,400064,19.184836,72.834121,Maharashtra,,,1,1,1,1,1,1,1,1130,05-11-2015
479,Armani Jeans - Infiniti Mall Malad West,"Infiniti Mall - Malad, Ground Floor, Link Road",,Malad West,Mumbai,400064,19.184836,72.834121,Maharashtra,,,1,1,1,1,1,1,1,1297,05-11-2015
480,bebe - Infiniti Mall Malad West,"Infiniti Mall - Malad, Ground Floor, Link Road",,Malad West,Mumbai,400064,19.184836,72.834121,Maharashtra,,,1,1,1,1,1,1,1,1298,05-11-2015
481,Celio - Infiniti Mall Malad West,"Infiniti Mall - Malad, Ground Floor, Link Road",,Malad West,Mumbai,400064,19.184836,72.834121,Maharashtra,,,1,1,1,1,1,1,1,1179,05-11-2015
482,Charles & Keith - Infiniti Mall Malad West,"Infiniti Mall - Malad, Ground Floor, Link Road",,Malad West,Mumbai,400064,19.184836,72.834121,Maharashtra,,,1,1,1,1,1,1,1,1133,05-11-2015
483,Crabtree & Evelyn - Infiniti Mall Malad West,"Infiniti Mall - Malad, Ground Floor, Link Road",,Malad West,Mumbai,400064,19.184836,72.834121,Maharashtra,,,1,1,1,1,1,1,1,1299,05-11-2015
484,DA MILANO - Infiniti Mall Malad West,"Infiniti Mall - Malad, Ground Floor, Link Road",,Malad West,Mumbai,400064,19.184836,72.834121,Maharashtra,,,1,1,1,1,1,1,1,1300,05-11-2015
485,Ethos Swiss Watch Studios - Infiniti Mall Malad West,"Infiniti Mall - Malad, Ground Floor, Link Road",,Malad West,Mumbai,400064,19.184836,72.834121,Maharashtra,,,1,1,1,1,1,1,1,1173,05-11-2015
486,Forest Essentials - Infiniti Mall Malad West,"Infiniti Mall - Malad, Ground Floor, Link Road",,Malad West,Mumbai,400064,19.184836,72.834121,Maharashtra,,,1,1,1,1,1,1,1,1301,05-11-2015
487,Forever 21 - Infiniti Mall Malad West,"Infiniti Mall - Malad, Ground Floor, Link Road",,Malad West,Mumbai,400064,19.184836,72.834121,Maharashtra,,,1,1,1,1,1,1,1,1302,05-11-2015
488,FOREVER NEW - Infiniti Mall Malad West,"Infiniti Mall - Malad, Ground Floor, Link Road",,Malad West,Mumbai,400064,19.184836,72.834121,Maharashtra,,,1,1,1,1,1,1,1,1226,05-11-2015
489,Games The Shop - Infiniti Mall Malad West,"Infiniti Mall - Malad, Ground Floor, Link Road",,Malad West,Mumbai,400064,19.184836,72.834121,Maharashtra,,,1,1,1,1,1,1,1,1289,05-11-2015
490,GANT - Infiniti Mall Malad West,"Infiniti Mall - Malad, Ground Floor, Link Road",,Malad West,Mumbai,400064,19.184836,72.834121,Maharashtra,,,1,1,1,1,1,1,1,1303,05-11-2015
491,Holii - Infiniti Mall Malad West,"Infiniti Mall - Malad, Ground Floor, Link Road",,Malad West,Mumbai,400064,19.184836,72.834121,Maharashtra,,,1,1,1,1,1,1,1,1304,05-11-2015
492,Inglot - Infiniti Mall Malad West,"Infiniti Mall - Malad, Ground Floor, Link Road",,Malad West,Mumbai,400064,19.184836,72.834121,Maharashtra,,,1,1,1,1,1,1,1,1188,05-11-2015
493,Label RITU KUMAR - Infiniti Mall Malad West,"Infiniti Mall - Malad, Ground Floor, Link Road",,Malad West,Mumbai,400064,19.184836,72.834121,Maharashtra,,,1,1,1,1,1,1,1,1306,05-11-2015
494,Louis Philippe - Infiniti Mall Malad West,"Infiniti Mall - Malad, Ground Floor, Link Road",,Malad West,Mumbai,400064,19.184836,72.834121,Maharashtra,,,1,1,1,1,1,1,1,1230,05-11-2015
495,Mango - Infiniti Mall Malad West,"Infiniti Mall - Malad, Ground Floor, Link Road",,Malad West,Mumbai,400064,19.184836,72.834121,Maharashtra,,,1,1,1,1,1,1,1,1138,05-11-2015
496,ONLY - Infiniti Mall Malad West,"Infiniti Mall - Malad, Ground Floor, Link Road",,Malad West,Mumbai,400064,19.184836,72.834121,Maharashtra,,,1,1,1,1,1,1,1,1286,05-11-2015
497,Promod - Infiniti Mall Malad West,"Infiniti Mall - Malad, Ground Floor, Link Road",,Malad West,Mumbai,400064,19.184836,72.834121,Maharashtra,,,1,1,1,1,1,1,1,1140,05-11-2015
498,Reliance Trends - Infiniti Mall Malad West,"Infiniti Mall - Malad, Ground Floor, Link Road",,Malad West,Mumbai,400064,19.184836,72.834121,Maharashtra,,,1,1,1,1,1,1,1,1305,05-11-2015
499,RITU KUMAR - Infiniti Mall Malad West,"Infiniti Mall - Malad, Ground Floor, Link Road",,Malad West,Mumbai,400064,19.184836,72.834121,Maharashtra,,,1,1,1,1,1,1,1,1306,05-11-2015
500,s.Oliver - Infiniti Mall Malad West,"Infiniti Mall - Malad, Ground Floor, Link Road",,Malad West,Mumbai,400064,19.184836,72.834121,Maharashtra,,,1,1,1,1,1,1,1,1307,05-11-2015
501,Sunglass Hut - Infiniti Mall Malad West,"Infiniti Mall - Malad, Ground Floor, Link Road",,Malad West,Mumbai,400064,19.184836,72.834121,Maharashtra,,,1,1,1,1,1,1,1,1308,05-11-2015
502,Timberland - Infiniti Mall Malad West,"Infiniti Mall - Malad, Ground Floor, Link Road",,Malad West,Mumbai,400064,19.184836,72.834121,Maharashtra,,,1,1,1,1,1,1,1,1266,05-11-2015
503,VERO MODA - Infiniti Mall Malad West,"Infiniti Mall - Malad, Ground Floor, Link Road",,Malad West,Mumbai,400064,19.184836,72.834121,Maharashtra,,,1,1,1,1,1,1,1,1288,05-11-2015
504,ZODIAC - Infiniti Mall Malad West,"Infiniti Mall - Malad, Ground Floor, Link Road",,Malad West,Mumbai,400064,19.184836,72.834121,Maharashtra,,,1,1,1,1,1,1,1,1174,05-11-2015
505,Mineral - Infiniti Mall Malad West,"Infiniti Mall - Malad, First Floor, Link Road",,Malad West,Mumbai,400064,19.184836,72.834121,Maharashtra,,,1,1,1,1,1,1,1,1251,05-11-2015
506,Addons - Infiniti Mall Malad West,"Infiniti Mall - Malad, First Floor, Link Road",,Malad West,Mumbai,400064,19.184836,72.834121,Maharashtra,,,1,1,1,1,1,1,1,1309,05-11-2015
507,ALCOTT - Infiniti Mall Malad West,"Infiniti Mall - Malad, First Floor, Link Road",,Malad West,Mumbai,400064,19.184836,72.834121,Maharashtra,,,1,1,1,1,1,1,1,1310,05-11-2015
508,aLL the plus size store - Infiniti Mall Malad West,"Infiniti Mall - Malad, First Floor, Link Road",,Malad West,Mumbai,400064,19.184836,72.834121,Maharashtra,,,1,1,1,1,1,1,1,1151,05-11-2015
509,Allen Solly - Infiniti Mall Malad West,"Infiniti Mall - Malad, First Floor, Link Road",,Malad West,Mumbai,400064,19.184836,72.834121,Maharashtra,,,1,1,1,1,1,1,1,1145,05-11-2015
510,Fabindia - Infiniti Mall Malad West,"Infiniti Mall - Malad, First Floor, Link Road",,Malad West,Mumbai,400064,19.184836,72.834121,Maharashtra,,,1,1,1,1,1,1,1,1224,05-11-2015
511,Global Desi - Infiniti Mall Malad West,"Infiniti Mall - Malad, First Floor, Link Road",,Malad West,Mumbai,400064,19.184836,72.834121,Maharashtra,,,1,1,1,1,1,1,1,1205,05-11-2015
512,Helios Watches - Infiniti Mall Malad West,"Infiniti Mall - Malad, First Floor, Link Road",,Malad West,Mumbai,400064,19.184836,72.834121,Maharashtra,,,1,1,1,1,1,1,1,1259,05-11-2015
513,Ivory Tag - Infiniti Mall Malad West,"Infiniti Mall - Malad, First Floor, Link Road",,Malad West,Mumbai,400064,19.184836,72.834121,Maharashtra,,,1,1,1,1,1,1,1,1311,05-11-2015
514,Jack & Jones - Infiniti Mall Malad West,"Infiniti Mall - Malad, First Floor, Link Road",,Malad West,Mumbai,400064,19.184836,72.834121,Maharashtra,,,1,1,1,1,1,1,1,1312,05-11-2015
515,Jashn - Infiniti Mall Malad West,"Infiniti Mall - Malad, First Floor, Link Road",,Malad West,Mumbai,400064,19.184836,72.834121,Maharashtra,,,1,1,1,1,1,1,1,1144,05-11-2015
516,Latin Quarters - Infiniti Mall Malad West,"Infiniti Mall - Malad, First Floor, Link Road",,Malad West,Mumbai,400064,19.184836,72.834121,Maharashtra,,,1,1,1,1,1,1,1,1313,05-11-2015
517,Lee - Infiniti Mall Malad West,"Infiniti Mall - Malad, First Floor, Link Road",,Malad West,Mumbai,400064,19.184836,72.834121,Maharashtra,,,1,1,1,1,1,1,1,1168,05-11-2015
518,Mufti - Infiniti Mall Malad West,"Infiniti Mall - Malad, First Floor, Link Road",,Malad West,Mumbai,400064,19.184836,72.834121,Maharashtra,,,1,1,1,1,1,1,1,1163,05-11-2015
519,NAUTICA - Infiniti Mall Malad West,"Infiniti Mall - Malad, First Floor, Link Road",,Malad West,Mumbai,400064,19.184836,72.834121,Maharashtra,,,1,1,1,1,1,1,1,1314,05-11-2015
520,pantaloons - Infiniti Mall Malad West,"Infiniti Mall - Malad, First Floor, Link Road",,Malad West,Mumbai,400064,19.184836,72.834121,Maharashtra,,,1,1,1,1,1,1,1,1155,05-11-2015
521,Pepe Jeans London - Infiniti Mall Malad West,"Infiniti Mall - Malad, First Floor, Link Road",,Malad West,Mumbai,400064,19.184836,72.834121,Maharashtra,,,1,1,1,1,1,1,1,1236,05-11-2015
522,Queue Up - Infiniti Mall Malad West,"Infiniti Mall - Malad, First Floor, Link Road",,Malad West,Mumbai,400064,19.184836,72.834121,Maharashtra,,,1,1,1,1,1,1,1,1126,05-11-2015
523,Satya Paul - Infiniti Mall Malad West,"Infiniti Mall - Malad, First Floor, Link Road",,Malad West,Mumbai,400064,19.184836,72.834121,Maharashtra,,,1,1,1,1,1,1,1,1315,05-11-2015
524,Spykar - Infiniti Mall Malad West,"Infiniti Mall - Malad, First Floor, Link Road",,Malad West,Mumbai,400064,19.184836,72.834121,Maharashtra,,,1,1,1,1,1,1,1,1161,05-11-2015
525,Van Heusen - Infiniti Mall Malad West,"Infiniti Mall - Malad, First Floor, Link Road",,Malad West,Mumbai,400064,19.184836,72.834121,Maharashtra,,,1,1,1,1,1,1,1,1249,05-11-2015
526,W for Woman - Infiniti Mall Malad West,"Infiniti Mall - Malad, First Floor, Link Road",,Malad West,Mumbai,400064,19.184836,72.834121,Maharashtra,,,1,1,1,1,1,1,1,1250,05-11-2015
527,Baggit - Infiniti Mall Malad West,"Infiniti Mall - Malad, Second Floor, Link Road",,Malad West,Mumbai,400064,19.184836,72.834121,Maharashtra,,,1,1,1,1,1,1,1,1123,05-11-2015
528,Barbie Store - Infiniti Mall Malad West,"Infiniti Mall - Malad, Second Floor, Link Road",,Malad West,Mumbai,400064,19.184836,72.834121,Maharashtra,,,1,1,1,1,1,1,1,1203,05-11-2015
529,Bombay High Fashions - Infiniti Mall Malad West,"Infiniti Mall - Malad, Second Floor, Link Road",,Malad West,Mumbai,400064,19.184836,72.834121,Maharashtra,,,1,1,1,1,1,1,1,1199,05-11-2015
530,CARBON Fine Jewellery - Infiniti Mall Malad West,"Infiniti Mall - Malad, Second Floor, Link Road",,Malad West,Mumbai,400064,19.184836,72.834121,Maharashtra,,,1,1,1,1,1,1,1,1316,05-11-2015
531,Catwalk - Infiniti Mall Malad West,"Infiniti Mall - Malad, Second Floor, Link Road",,Malad West,Mumbai,400064,19.184836,72.834121,Maharashtra,,,1,1,1,1,1,1,1,1132,05-11-2015
532,CHICCO - Infiniti Mall Malad West,"Infiniti Mall - Malad, Second Floor, Link Road",,Malad West,Mumbai,400064,19.184836,72.834121,Maharashtra,,,1,1,1,1,1,1,1,1219,05-11-2015
533,Collezioni Moda - Infiniti Mall Malad West,"Infiniti Mall - Malad, Second Floor, Link Road",,Malad West,Mumbai,400064,19.184836,72.834121,Maharashtra,,,1,1,1,1,1,1,1,1135,05-11-2015
534,Columbia Sportswear - Infiniti Mall Malad West,"Infiniti Mall - Malad, Second Floor, Link Road",,Malad West,Mumbai,400064,19.184836,72.834121,Maharashtra,,,1,1,1,1,1,1,1,1255,05-11-2015
535,Cottonworld - Infiniti Mall Malad West,"Infiniti Mall - Malad, Second Floor, Link Road",,Malad West,Mumbai,400064,19.184836,72.834121,Maharashtra,,,1,1,1,1,1,1,1,1221,05-11-2015
536,Crocs - Infiniti Mall Malad West,"Infiniti Mall - Malad, Second Floor, Link Road",,Malad West,Mumbai,400064,19.184836,72.834121,Maharashtra,,,1,1,1,1,1,1,1,1256,05-11-2015
537,Ebony Gautier - Infiniti Mall Malad West,"Infiniti Mall - Malad, Second Floor, Link Road",,Malad West,Mumbai,400064,19.184836,72.834121,Maharashtra,,,1,1,1,1,1,1,1,1317,05-11-2015
538,Ethnicity - Infiniti Mall Malad West,"Infiniti Mall - Malad, Second Floor, Link Road",,Malad West,Mumbai,400064,19.184836,72.834121,Maharashtra,,,1,1,1,1,1,1,1,1204,05-11-2015
539,FACES Cosmetics - Infiniti Mall Malad West,"Infiniti Mall - Malad, Second Floor, Link Road",,Malad West,Mumbai,400064,19.184836,72.834121,Maharashtra,,,1,1,1,1,1,1,1,1225,05-11-2015
540,Indostyle - Infiniti Mall Malad West,"Infiniti Mall - Malad, Second Floor, Link Road",,Malad West,Mumbai,400064,19.184836,72.834121,Maharashtra,,,1,1,1,1,1,1,1,1318,05-11-2015
541,Karigari Jewelry - Infiniti Mall Malad West,"Infiniti Mall - Malad, Second Floor, Link Road",,Malad West,Mumbai,400064,19.184836,72.834121,Maharashtra,,,1,1,1,1,1,1,1,1290,05-11-2015
542,Lavie - Infiniti Mall Malad West,"Infiniti Mall - Malad, Second Floor, Link Road",,Malad West,Mumbai,400064,19.184836,72.834121,Maharashtra,,,1,1,1,1,1,1,1,1319,05-11-2015
543,Metro Shoes - Infiniti Mall Malad West,"Infiniti Mall - Malad, Second Floor, Link Road",,Malad West,Mumbai,400064,19.184836,72.834121,Maharashtra,,,1,1,1,1,1,1,1,1158,05-11-2015
544,Mothercare - Infiniti Mall Malad West,"Infiniti Mall - Malad, Second Floor, Link Road",,Malad West,Mumbai,400064,19.184836,72.834121,Maharashtra,,,1,1,1,1,1,1,1,1275,05-11-2015
545,Omved - Infiniti Mall Malad West,"Infiniti Mall - Malad, Second Floor, Link Road",,Malad West,Mumbai,400064,19.184836,72.834121,Maharashtra,,,1,1,1,1,1,1,1,1235,05-11-2015
546,PURE Home + Living - Infiniti Mall Malad West,"Infiniti Mall - Malad, Second Floor, Link Road",,Malad West,Mumbai,400064,19.184836,72.834121,Maharashtra,,,1,1,1,1,1,1,1,1320,05-11-2015
547,Reliance Digital - Infiniti Mall Malad West,"Infiniti Mall - Malad, Second Floor, Link Road",,Malad West,Mumbai,400064,19.184836,72.834121,Maharashtra,,,1,1,1,1,1,1,1,1321,05-11-2015
548,Reliance TimeOut - Infiniti Mall Malad West,"Infiniti Mall - Malad, Second Floor, Link Road",,Malad West,Mumbai,400064,19.184836,72.834121,Maharashtra,,,1,1,1,1,1,1,1,1322,05-11-2015
549,Rhysetta - Infiniti Mall Malad West,"Infiniti Mall - Malad, Second Floor, Link Road",,Malad West,Mumbai,400064,19.184836,72.834121,Maharashtra,,,1,1,1,1,1,1,1,1240,05-11-2015
550,SHAZE Sterling Silverware - Infiniti Mall Malad West,"Infiniti Mall - Malad, Second Floor, Link Road",,Malad West,Mumbai,400064,19.184836,72.834121,Maharashtra,,,1,1,1,1,1,1,1,1323,05-11-2015
551,Soch - Infiniti Mall Malad West,"Infiniti Mall - Malad, Second Floor, Link Road",,Malad West,Mumbai,400064,19.184836,72.834121,Maharashtra,,,1,1,1,1,1,1,1,1324,05-11-2015
552,Splash - Infiniti Mall Malad West,"Infiniti Mall - Malad, Second Floor, Link Road",,Malad West,Mumbai,400064,19.184836,72.834121,Maharashtra,,,1,1,1,1,1,1,1,1325,05-11-2015
553,WOODLAND - Infiniti Mall Malad West,"Infiniti Mall - Malad, Second Floor, Link Road",,Malad West,Mumbai,400064,19.184836,72.834121,Maharashtra,,,1,1,1,1,1,1,1,1326,05-11-2015
554,Cocoberry - Infiniti Mall Malad West,"Infiniti Mall - Malad, Third Floor, Link Road",,Malad West,Mumbai,400064,19.184836,72.834121,Maharashtra,,,1,1,1,1,1,1,1,1327,05-11-2015
555,Mad Over Donuts - Infiniti Mall Malad West,"Infiniti Mall - Malad, Third Floor, Link Road",,Malad West,Mumbai,400064,19.184836,72.834121,Maharashtra,,,1,1,1,1,1,1,1,1262,05-11-2015
556,Mainland China - Infiniti Mall Malad West,"Infiniti Mall - Malad, Third Floor, Link Road",,Malad West,Mumbai,400064,19.184836,72.834121,Maharashtra,,,1,1,1,1,1,1,1,1206,05-11-2015
557,McDonald's - Infiniti Mall Malad West,"Infiniti Mall - Malad, Third Floor, Link Road",,Malad West,Mumbai,400064,19.184836,72.834121,Maharashtra,,,1,1,1,1,1,1,1,1150,05-11-2015
558,Panchavati Gaurav - Infiniti Mall Malad West,"Infiniti Mall - Malad, Third Floor, Link Road",,Malad West,Mumbai,400064,19.184836,72.834121,Maharashtra,,,1,1,1,1,1,1,1,1284,05-11-2015
559,Subway - Infiniti Mall Malad West,"Infiniti Mall - Malad, Third Floor, Link Road",,Malad West,Mumbai,400064,19.184836,72.834121,Maharashtra,,,1,1,1,1,1,1,1,1156,05-11-2015
560,Zaffran - Infiniti Mall Malad West,"Infiniti Mall - Malad, Fourth Floor, Link Road",,Malad West,Mumbai,400064,19.184836,72.834121,Maharashtra,,,1,1,1,1,1,1,1,1210,05-11-2015
561,Nokia - Infiniti Mall Malad West,"Infiniti Mall - Malad, Lower Ground Floor, Link Road",,Malad West,Mumbai,400064,19.184836,72.834121,Maharashtra,,,1,1,1,1,1,1,1,1328,05-11-2015
